[{"city_name":"Ras Al Khaimah City","country_code":"AE","latitude":"25.78953","longitude":"55.9432","country_name":"United Arab Emirates"},{"city_name":"Dubai","country_code":"AE","latitude":"25.07725","longitude":"55.30927","country_name":"United Arab Emirates"},{"city_name":"Sharjah","country_code":"AE","latitude":"25.33737","longitude":"55.41206","country_name":"United Arab Emirates"},{"city_name":"Ajman City","country_code":"AE","latitude":"25.40177","longitude":"55.47878","country_name":"United Arab Emirates"},{"city_name":"Abu Dhabi","country_code":"AE","latitude":"24.45118","longitude":"54.39696","country_name":"United Arab Emirates"},{"city_name":"Mazār-e Sharīf","country_code":"AF","latitude":"36.70904","longitude":"67.11087","country_name":"Afghanistan"},{"city_name":"Kandahār","country_code":"AF","latitude":"31.61332","longitude":"65.71013","country_name":"Afghanistan"},{"city_name":"Kabul","country_code":"AF","latitude":"34.52813","longitude":"69.17233","country_name":"Afghanistan"},{"city_name":"Tirana","country_code":"AL","latitude":"41.3275","longitude":"19.81889","country_name":"Albania"},{"city_name":"Yerevan","country_code":"AM","latitude":"40.18111","longitude":"44.51361","country_name":"Armenia"},{"city_name":"N’dalatando","country_code":"AO","latitude":"-9.29782","longitude":"14.91162","country_name":"Angola"},{"city_name":"Luanda","country_code":"AO","latitude":"-8.83682","longitude":"13.23432","country_name":"Angola"},{"city_name":"Resistencia","country_code":"AR","latitude":"-27.46056","longitude":"-58.98389","country_name":"Argentina"},{"city_name":"Posadas","country_code":"AR","latitude":"-27.36708","longitude":"-55.89608","country_name":"Argentina"},{"city_name":"Morón","country_code":"AR","latitude":"-34.6509","longitude":"-58.61956","country_name":"Argentina"},{"city_name":"Mar del Plata","country_code":"AR","latitude":"-38.00042","longitude":"-57.5562","country_name":"Argentina"},{"city_name":"La Plata","country_code":"AR","latitude":"-34.92145","longitude":"-57.95453","country_name":"Argentina"},{"city_name":"Corrientes","country_code":"AR","latitude":"-27.46784","longitude":"-58.8344","country_name":"Argentina"},{"city_name":"Buenos Aires","country_code":"AR","latitude":"-34.61315","longitude":"-58.37723","country_name":"Argentina"},{"city_name":"Santiago del Estero","country_code":"AR","latitude":"-27.79511","longitude":"-64.26149","country_name":"Argentina"},{"city_name":"Santa Fe","country_code":"AR","latitude":"-31.64881","longitude":"-60.70868","country_name":"Argentina"},{"city_name":"San Salvador de Jujuy","country_code":"AR","latitude":"-24.19457","longitude":"-65.29712","country_name":"Argentina"},{"city_name":"San Miguel de Tucumán","country_code":"AR","latitude":"-26.82414","longitude":"-65.2226","country_name":"Argentina"},{"city_name":"San Juan","country_code":"AR","latitude":"-31.5375","longitude":"-68.53639","country_name":"Argentina"},{"city_name":"Salta","country_code":"AR","latitude":"-24.7859","longitude":"-65.41166","country_name":"Argentina"},{"city_name":"Rosario","country_code":"AR","latitude":"-32.94682","longitude":"-60.63932","country_name":"Argentina"},{"city_name":"Mendoza","country_code":"AR","latitude":"-32.89084","longitude":"-68.82717","country_name":"Argentina"},{"city_name":"Córdoba","country_code":"AR","latitude":"-31.4135","longitude":"-64.18105","country_name":"Argentina"},{"city_name":"Vienna","country_code":"AT","latitude":"48.20849","longitude":"16.37208","country_name":"Austria"},{"city_name":"Perth","country_code":"AU","latitude":"-31.95224","longitude":"115.8614","country_name":"Australia"},{"city_name":"Adelaide","country_code":"AU","latitude":"-34.92866","longitude":"138.59863","country_name":"Australia"},{"city_name":"Sydney","country_code":"AU","latitude":"-33.86785","longitude":"151.20732","country_name":"Australia"},{"city_name":"Newcastle","country_code":"AU","latitude":"-32.92953","longitude":"151.7801","country_name":"Australia"},{"city_name":"Melbourne","country_code":"AU","latitude":"-37.814","longitude":"144.96332","country_name":"Australia"},{"city_name":"Gold Coast","country_code":"AU","latitude":"-28.00029","longitude":"153.43088","country_name":"Australia"},{"city_name":"Canberra","country_code":"AU","latitude":"-35.28346","longitude":"149.12807","country_name":"Australia"},{"city_name":"Brisbane","country_code":"AU","latitude":"-27.46794","longitude":"153.02809","country_name":"Australia"},{"city_name":"Ganja","country_code":"AZ","latitude":"40.68278","longitude":"46.36056","country_name":"Azerbaijan"},{"city_name":"Baku","country_code":"AZ","latitude":"40.37767","longitude":"49.89201","country_name":"Azerbaijan"},{"city_name":"Sarajevo","country_code":"BA","latitude":"43.84864","longitude":"18.35644","country_name":"Bosnia and Herzegovina"},{"city_name":"Tungi","country_code":"BD","latitude":"23.89154","longitude":"90.40232","country_name":"Bangladesh"},{"city_name":"Shibganj","country_code":"BD","latitude":"25.00146","longitude":"89.32266","country_name":"Bangladesh"},{"city_name":"Rājshāhi","country_code":"BD","latitude":"24.374","longitude":"88.60114","country_name":"Bangladesh"},{"city_name":"Comilla","country_code":"BD","latitude":"23.46186","longitude":"91.18503","country_name":"Bangladesh"},{"city_name":"Rangpur","country_code":"BD","latitude":"25.74664","longitude":"89.25166","country_name":"Bangladesh"},{"city_name":"Dhaka","country_code":"BD","latitude":"23.7104","longitude":"90.40744","country_name":"Bangladesh"},{"city_name":"Chittagong","country_code":"BD","latitude":"22.3384","longitude":"91.83168","country_name":"Bangladesh"},{"city_name":"Khulna","country_code":"BD","latitude":"22.80979","longitude":"89.56439","country_name":"Bangladesh"},{"city_name":"Natore","country_code":"BD","latitude":"24.41112","longitude":"88.98673","country_name":"Bangladesh"},{"city_name":"Brussels","country_code":"BE","latitude":"50.85045","longitude":"4.34878","country_name":"Belgium"},{"city_name":"Antwerpen","country_code":"BE","latitude":"51.22047","longitude":"4.40026","country_name":"Belgium"},{"city_name":"Ouagadougou","country_code":"BF","latitude":"12.36566","longitude":"-1.53388","country_name":"Burkina Faso"},{"city_name":"Bobo-Dioulasso","country_code":"BF","latitude":"11.17715","longitude":"-4.2979","country_name":"Burkina Faso"},{"city_name":"Varna","country_code":"BG","latitude":"43.21667","longitude":"27.91667","country_name":"Bulgaria"},{"city_name":"Sofia","country_code":"BG","latitude":"42.69751","longitude":"23.32415","country_name":"Bulgaria"},{"city_name":"Plovdiv","country_code":"BG","latitude":"42.15","longitude":"24.75","country_name":"Bulgaria"},{"city_name":"Bujumbura","country_code":"BI","latitude":"-3.38193","longitude":"29.36142","country_name":"Burundi"},{"city_name":"Cotonou","country_code":"BJ","latitude":"6.36536","longitude":"2.41833","country_name":"Benin"},{"city_name":"Abomey-Calavi","country_code":"BJ","latitude":"6.44852","longitude":"2.35566","country_name":"Benin"},{"city_name":"Santa Cruz de la Sierra","country_code":"BO","latitude":"-17.78629","longitude":"-63.18117","country_name":"Bolivia"},{"city_name":"La Paz","country_code":"BO","latitude":"-16.5","longitude":"-68.15","country_name":"Bolivia"},{"city_name":"Cochabamba","country_code":"BO","latitude":"-17.3895","longitude":"-66.1568","country_name":"Bolivia"},{"city_name":"Teresina","country_code":"BR","latitude":"-5.08917","longitude":"-42.80194","country_name":"Brazil"},{"city_name":"São Luís","country_code":"BR","latitude":"-2.52972","longitude":"-44.30278","country_name":"Brazil"},{"city_name":"Recife","country_code":"BR","latitude":"-8.05389","longitude":"-34.88111","country_name":"Brazil"},{"city_name":"Olinda","country_code":"BR","latitude":"-8.00889","longitude":"-34.85528","country_name":"Brazil"},{"city_name":"Natal","country_code":"BR","latitude":"-5.795","longitude":"-35.20944","country_name":"Brazil"},{"city_name":"Maceió","country_code":"BR","latitude":"-9.66583","longitude":"-35.73528","country_name":"Brazil"},{"city_name":"Macapá","country_code":"BR","latitude":"0.03889","longitude":"-51.06639","country_name":"Brazil"},{"city_name":"João Pessoa","country_code":"BR","latitude":"-7.115","longitude":"-34.86306","country_name":"Brazil"},{"city_name":"Jaboatão","country_code":"BR","latitude":"-8.18028","longitude":"-35.00139","country_name":"Brazil"},{"city_name":"Fortaleza","country_code":"BR","latitude":"-3.71722","longitude":"-38.54306","country_name":"Brazil"},{"city_name":"Campina Grande","country_code":"BR","latitude":"-7.23056","longitude":"-35.88111","country_name":"Brazil"},{"city_name":"Belém","country_code":"BR","latitude":"-1.45583","longitude":"-48.50444","country_name":"Brazil"},{"city_name":"Ananindeua","country_code":"BR","latitude":"-1.36556","longitude":"-48.37222","country_name":"Brazil"},{"city_name":"Vitória","country_code":"BR","latitude":"-20.31944","longitude":"-40.33778","country_name":"Brazil"},{"city_name":"Vila Velha","country_code":"BR","latitude":"-20.32972","longitude":"-40.2925","country_name":"Brazil"},{"city_name":"Uberlândia","country_code":"BR","latitude":"-18.91861","longitude":"-48.27722","country_name":"Brazil"},{"city_name":"Sorocaba","country_code":"BR","latitude":"-23.50167","longitude":"-47.45806","country_name":"Brazil"},{"city_name":"Serra","country_code":"BR","latitude":"-20.12861","longitude":"-40.30778","country_name":"Brazil"},{"city_name":"São Vicente","country_code":"BR","latitude":"-23.96306","longitude":"-46.39194","country_name":"Brazil"},{"city_name":"São Paulo","country_code":"BR","latitude":"-23.5475","longitude":"-46.63611","country_name":"Brazil"},{"city_name":"São José dos Campos","country_code":"BR","latitude":"-23.17944","longitude":"-45.88694","country_name":"Brazil"},{"city_name":"São José do Rio Preto","country_code":"BR","latitude":"-20.81972","longitude":"-49.37944","country_name":"Brazil"},{"city_name":"São João de Meriti","country_code":"BR","latitude":"-22.80389","longitude":"-43.37222","country_name":"Brazil"},{"city_name":"São Bernardo do Campo","country_code":"BR","latitude":"-23.69389","longitude":"-46.565","country_name":"Brazil"},{"city_name":"Santos","country_code":"BR","latitude":"-23.96083","longitude":"-46.33361","country_name":"Brazil"},{"city_name":"Santo André","country_code":"BR","latitude":"-23.66389","longitude":"-46.53833","country_name":"Brazil"},{"city_name":"Salvador","country_code":"BR","latitude":"-12.97111","longitude":"-38.51083","country_name":"Brazil"},{"city_name":"Rio de Janeiro","country_code":"BR","latitude":"-22.90642","longitude":"-43.18223","country_name":"Brazil"},{"city_name":"Ribeirão Preto","country_code":"BR","latitude":"-21.1775","longitude":"-47.81028","country_name":"Brazil"},{"city_name":"Ribeirão das Neves","country_code":"BR","latitude":"-19.76694","longitude":"-44.08667","country_name":"Brazil"},{"city_name":"Porto Alegre","country_code":"BR","latitude":"-30.03283","longitude":"-51.23019","country_name":"Brazil"},{"city_name":"Piracicaba","country_code":"BR","latitude":"-22.72528","longitude":"-47.64917","country_name":"Brazil"},{"city_name":"Pelotas","country_code":"BR","latitude":"-31.76997","longitude":"-52.34101","country_name":"Brazil"},{"city_name":"Osasco","country_code":"BR","latitude":"-23.5325","longitude":"-46.79167","country_name":"Brazil"},{"city_name":"Nova Iguaçu","country_code":"BR","latitude":"-22.75917","longitude":"-43.45111","country_name":"Brazil"},{"city_name":"Niterói","country_code":"BR","latitude":"-22.88333","longitude":"-43.10361","country_name":"Brazil"},{"city_name":"Montes Claros","country_code":"BR","latitude":"-16.735","longitude":"-43.86167","country_name":"Brazil"},{"city_name":"Mogi das Cruzes","country_code":"BR","latitude":"-23.52278","longitude":"-46.18833","country_name":"Brazil"},{"city_name":"Mauá","country_code":"BR","latitude":"-23.66778","longitude":"-46.46139","country_name":"Brazil"},{"city_name":"Maringá","country_code":"BR","latitude":"-23.42528","longitude":"-51.93861","country_name":"Brazil"},{"city_name":"Londrina","country_code":"BR","latitude":"-23.31028","longitude":"-51.16278","country_name":"Brazil"},{"city_name":"Jundiaí","country_code":"BR","latitude":"-23.18639","longitude":"-46.88417","country_name":"Brazil"},{"city_name":"Juiz de Fora","country_code":"BR","latitude":"-21.76417","longitude":"-43.35028","country_name":"Brazil"},{"city_name":"Joinville","country_code":"BR","latitude":"-26.30444","longitude":"-48.84556","country_name":"Brazil"},{"city_name":"Itaquaquecetuba","country_code":"BR","latitude":"-23.48611","longitude":"-46.34833","country_name":"Brazil"},{"city_name":"Guarulhos","country_code":"BR","latitude":"-23.46278","longitude":"-46.53333","country_name":"Brazil"},{"city_name":"Guarujá","country_code":"BR","latitude":"-23.99306","longitude":"-46.25639","country_name":"Brazil"},{"city_name":"Goiânia","country_code":"BR","latitude":"-16.67861","longitude":"-49.25389","country_name":"Brazil"},{"city_name":"Franca","country_code":"BR","latitude":"-20.53861","longitude":"-47.40083","country_name":"Brazil"},{"city_name":"Florianópolis","country_code":"BR","latitude":"-27.59667","longitude":"-48.54917","country_name":"Brazil"},{"city_name":"Feira de Santana","country_code":"BR","latitude":"-12.26667","longitude":"-38.96667","country_name":"Brazil"},{"city_name":"Duque de Caxias","country_code":"BR","latitude":"-22.78556","longitude":"-43.31167","country_name":"Brazil"},{"city_name":"Diadema","country_code":"BR","latitude":"-23.68611","longitude":"-46.62278","country_name":"Brazil"},{"city_name":"Curitiba","country_code":"BR","latitude":"-25.42778","longitude":"-49.27306","country_name":"Brazil"},{"city_name":"Cuiabá","country_code":"BR","latitude":"-15.59611","longitude":"-56.09667","country_name":"Brazil"},{"city_name":"Contagem","country_code":"BR","latitude":"-19.93167","longitude":"-44.05361","country_name":"Brazil"},{"city_name":"Caxias do Sul","country_code":"BR","latitude":"-29.16806","longitude":"-51.17944","country_name":"Brazil"},{"city_name":"Carapicuíba","country_code":"BR","latitude":"-23.52272","longitude":"-46.835","country_name":"Brazil"},{"city_name":"Canoas","country_code":"BR","latitude":"-29.91778","longitude":"-51.18361","country_name":"Brazil"},{"city_name":"Campos dos Goytacazes","country_code":"BR","latitude":"-21.75227","longitude":"-41.33044","country_name":"Brazil"},{"city_name":"Campo Grande","country_code":"BR","latitude":"-20.44278","longitude":"-54.64639","country_name":"Brazil"},{"city_name":"Campinas","country_code":"BR","latitude":"-22.90556","longitude":"-47.06083","country_name":"Brazil"},{"city_name":"Brasília","country_code":"BR","latitude":"-15.77972","longitude":"-47.92972","country_name":"Brazil"},{"city_name":"Betim","country_code":"BR","latitude":"-19.96778","longitude":"-44.19833","country_name":"Brazil"},{"city_name":"Belo Horizonte","country_code":"BR","latitude":"-19.92083","longitude":"-43.93778","country_name":"Brazil"},{"city_name":"Belford Roxo","country_code":"BR","latitude":"-22.76417","longitude":"-43.39944","country_name":"Brazil"},{"city_name":"Bauru","country_code":"BR","latitude":"-22.31472","longitude":"-49.06056","country_name":"Brazil"},{"city_name":"Aracaju","country_code":"BR","latitude":"-10.91111","longitude":"-37.07167","country_name":"Brazil"},{"city_name":"Anápolis","country_code":"BR","latitude":"-16.32667","longitude":"-48.95278","country_name":"Brazil"},{"city_name":"Porto Velho","country_code":"BR","latitude":"-8.76194","longitude":"-63.90389","country_name":"Brazil"},{"city_name":"Manaus","country_code":"BR","latitude":"-3.10194","longitude":"-60.025","country_name":"Brazil"},{"city_name":"Aparecida de Goiânia","country_code":"BR","latitude":"-16.82333","longitude":"-49.24389","country_name":"Brazil"},{"city_name":"Jaboatão dos Guararapes","country_code":"BR","latitude":"-8.11278","longitude":"-35.01472","country_name":"Brazil"},{"city_name":"Vitebsk","country_code":"BY","latitude":"55.1904","longitude":"30.2049","country_name":"Belarus"},{"city_name":"Minsk","country_code":"BY","latitude":"53.9","longitude":"27.56667","country_name":"Belarus"},{"city_name":"Mahilyow","country_code":"BY","latitude":"53.9168","longitude":"30.3449","country_name":"Belarus"},{"city_name":"Hrodna","country_code":"BY","latitude":"53.6884","longitude":"23.8258","country_name":"Belarus"},{"city_name":"Homyel'","country_code":"BY","latitude":"52.4345","longitude":"30.9754","country_name":"Belarus"},{"city_name":"Brest","country_code":"BY","latitude":"52.09755","longitude":"23.68775","country_name":"Belarus"},{"city_name":"Brampton","country_code":"CA","latitude":"43.68341","longitude":"-79.76633","country_name":"Canada"},{"city_name":"Calgary","country_code":"CA","latitude":"51.05011","longitude":"-114.08529","country_name":"Canada"},{"city_name":"Edmonton","country_code":"CA","latitude":"53.55014","longitude":"-113.46871","country_name":"Canada"},{"city_name":"Etobicoke","country_code":"CA","latitude":"43.65421","longitude":"-79.56711","country_name":"Canada"},{"city_name":"Hamilton","country_code":"CA","latitude":"43.25011","longitude":"-79.84963","country_name":"Canada"},{"city_name":"Laval","country_code":"CA","latitude":"45.56995","longitude":"-73.692","country_name":"Canada"},{"city_name":"London","country_code":"CA","latitude":"42.98339","longitude":"-81.23304","country_name":"Canada"},{"city_name":"Mississauga","country_code":"CA","latitude":"43.5789","longitude":"-79.6583","country_name":"Canada"},{"city_name":"Montréal","country_code":"CA","latitude":"45.50884","longitude":"-73.58781","country_name":"Canada"},{"city_name":"North York","country_code":"CA","latitude":"43.76681","longitude":"-79.4163","country_name":"Canada"},{"city_name":"Oshawa","country_code":"CA","latitude":"43.90012","longitude":"-78.84957","country_name":"Canada"},{"city_name":"Ottawa","country_code":"CA","latitude":"45.41117","longitude":"-75.69812","country_name":"Canada"},{"city_name":"Surrey","country_code":"CA","latitude":"49.10635","longitude":"-122.82509","country_name":"Canada"},{"city_name":"Toronto","country_code":"CA","latitude":"43.70011","longitude":"-79.4163","country_name":"Canada"},{"city_name":"Vancouver","country_code":"CA","latitude":"49.24966","longitude":"-123.11934","country_name":"Canada"},{"city_name":"Winnipeg","country_code":"CA","latitude":"49.8844","longitude":"-97.14704","country_name":"Canada"},{"city_name":"Halifax","country_code":"CA","latitude":"44.6464","longitude":"-63.57291","country_name":"Canada"},{"city_name":"Québec","country_code":"CA","latitude":"46.81228","longitude":"-71.21454","country_name":"Canada"},{"city_name":"Scarborough","country_code":"CA","latitude":"43.77223","longitude":"-79.25666","country_name":"Canada"},{"city_name":"Mbuji-Mayi","country_code":"CD","latitude":"-6.13603","longitude":"23.58979","country_name":"Democratic Republic of the Congo"},{"city_name":"Kisangani","country_code":"CD","latitude":"0.51528","longitude":"25.19099","country_name":"Democratic Republic of the Congo"},{"city_name":"Kananga","country_code":"CD","latitude":"-5.89624","longitude":"22.41659","country_name":"Democratic Republic of the Congo"},{"city_name":"Lubumbashi","country_code":"CD","latitude":"-11.66089","longitude":"27.47938","country_name":"Democratic Republic of the Congo"},{"city_name":"Likasi","country_code":"CD","latitude":"-10.98303","longitude":"26.7384","country_name":"Democratic Republic of the Congo"},{"city_name":"Kolwezi","country_code":"CD","latitude":"-10.71484","longitude":"25.46674","country_name":"Democratic Republic of the Congo"},{"city_name":"Kinshasa","country_code":"CD","latitude":"-4.32758","longitude":"15.31357","country_name":"Democratic Republic of the Congo"},{"city_name":"Masina","country_code":"CD","latitude":"-4.38361","longitude":"15.39139","country_name":"Democratic Republic of the Congo"},{"city_name":"Bangui","country_code":"CF","latitude":"4.36122","longitude":"18.55496","country_name":"Central African Republic"},{"city_name":"Pointe-Noire","country_code":"CG","latitude":"-4.77609","longitude":"11.86352","country_name":"Republic of the Congo"},{"city_name":"Brazzaville","country_code":"CG","latitude":"-4.26613","longitude":"15.28318","country_name":"Republic of the Congo"},{"city_name":"Zürich","country_code":"CH","latitude":"47.36667","longitude":"8.55","country_name":"Switzerland"},{"city_name":"Bouaké","country_code":"CI","latitude":"7.69385","longitude":"-5.03031","country_name":"Ivory Coast"},{"city_name":"Abobo","country_code":"CI","latitude":"5.41613","longitude":"-4.0159","country_name":"Ivory Coast"},{"city_name":"Abidjan","country_code":"CI","latitude":"5.35444","longitude":"-4.00167","country_name":"Ivory Coast"},{"city_name":"Santiago","country_code":"CL","latitude":"-33.45694","longitude":"-70.64827","country_name":"Chile"},{"city_name":"Puente Alto","country_code":"CL","latitude":"-33.61169","longitude":"-70.57577","country_name":"Chile"},{"city_name":"Antofagasta","country_code":"CL","latitude":"-23.65236","longitude":"-70.3954","country_name":"Chile"},{"city_name":"Yaoundé","country_code":"CM","latitude":"3.86667","longitude":"11.51667","country_name":"Cameroon"},{"city_name":"Maroua","country_code":"CM","latitude":"10.59095","longitude":"14.31593","country_name":"Cameroon"},{"city_name":"Kousséri","country_code":"CM","latitude":"12.07689","longitude":"15.03063","country_name":"Cameroon"},{"city_name":"Garoua","country_code":"CM","latitude":"9.30143","longitude":"13.39771","country_name":"Cameroon"},{"city_name":"Douala","country_code":"CM","latitude":"4.04827","longitude":"9.70428","country_name":"Cameroon"},{"city_name":"Bamenda","country_code":"CM","latitude":"5.9597","longitude":"10.14597","country_name":"Cameroon"},{"city_name":"Ürümqi","country_code":"CN","latitude":"43.80096","longitude":"87.60046","country_name":"China"},{"city_name":"Shihezi","country_code":"CN","latitude":"44.3023","longitude":"86.03694","country_name":"China"},{"city_name":"Aksu","country_code":"CN","latitude":"41.18418","longitude":"80.27921","country_name":"China"},{"city_name":"Zunyi","country_code":"CN","latitude":"27.68667","longitude":"106.90722","country_name":"China"},{"city_name":"Zigong","country_code":"CN","latitude":"29.34162","longitude":"104.77689","country_name":"China"},{"city_name":"Zhuzhou","country_code":"CN","latitude":"27.83333","longitude":"113.15","country_name":"China"},{"city_name":"Zhumadian","country_code":"CN","latitude":"32.97944","longitude":"114.02944","country_name":"China"},{"city_name":"Zhoukou","country_code":"CN","latitude":"33.63333","longitude":"114.63333","country_name":"China"},{"city_name":"Zhenjiang","country_code":"CN","latitude":"32.21086","longitude":"119.45508","country_name":"China"},{"city_name":"Zhengzhou","country_code":"CN","latitude":"34.75778","longitude":"113.64861","country_name":"China"},{"city_name":"Zhaoqing","country_code":"CN","latitude":"23.04893","longitude":"112.46091","country_name":"China"},{"city_name":"Zhanjiang","country_code":"CN","latitude":"21.28145","longitude":"110.34271","country_name":"China"},{"city_name":"Zhangzhou","country_code":"CN","latitude":"24.51333","longitude":"117.65556","country_name":"China"},{"city_name":"Zibo","country_code":"CN","latitude":"36.79056","longitude":"118.06333","country_name":"China"},{"city_name":"Anyang","country_code":"CN","latitude":"36.096","longitude":"114.38278","country_name":"China"},{"city_name":"Zhabei","country_code":"CN","latitude":"31.25861","longitude":"121.45972","country_name":"China"},{"city_name":"Kunshan","country_code":"CN","latitude":"31.37762","longitude":"120.95431","country_name":"China"},{"city_name":"Yunfu","country_code":"CN","latitude":"22.92833","longitude":"112.03954","country_name":"China"},{"city_name":"Yinchuan","country_code":"CN","latitude":"38.46806","longitude":"106.27306","country_name":"China"},{"city_name":"Yichang","country_code":"CN","latitude":"30.71444","longitude":"111.28472","country_name":"China"},{"city_name":"Yantai","country_code":"CN","latitude":"37.47649","longitude":"121.44081","country_name":"China"},{"city_name":"Yangzhou","country_code":"CN","latitude":"32.39722","longitude":"119.43583","country_name":"China"},{"city_name":"Yangquan","country_code":"CN","latitude":"37.8575","longitude":"113.56333","country_name":"China"},{"city_name":"Yancheng","country_code":"CN","latitude":"33.3575","longitude":"120.1573","country_name":"China"},{"city_name":"Tongshan","country_code":"CN","latitude":"34.18045","longitude":"117.15707","country_name":"China"},{"city_name":"Shangrao","country_code":"CN","latitude":"28.45179","longitude":"117.94287","country_name":"China"},{"city_name":"Xuchang","country_code":"CN","latitude":"34.03189","longitude":"113.86299","country_name":"China"},{"city_name":"Xinyang","country_code":"CN","latitude":"32.12278","longitude":"114.06556","country_name":"China"},{"city_name":"Xinxiang","country_code":"CN","latitude":"35.19033","longitude":"113.80151","country_name":"China"},{"city_name":"Xinpu","country_code":"CN","latitude":"34.59972","longitude":"119.15944","country_name":"China"},{"city_name":"Xining","country_code":"CN","latitude":"36.62554","longitude":"101.75739","country_name":"China"},{"city_name":"Xingtai","country_code":"CN","latitude":"37.06306","longitude":"114.49417","country_name":"China"},{"city_name":"Xianyang","country_code":"CN","latitude":"34.33778","longitude":"108.70261","country_name":"China"},{"city_name":"Zhuhai","country_code":"CN","latitude":"22.27694","longitude":"113.56778","country_name":"China"},{"city_name":"Xiangtan","country_code":"CN","latitude":"27.85","longitude":"112.9","country_name":"China"},{"city_name":"Xiangyang","country_code":"CN","latitude":"32.0422","longitude":"112.14479","country_name":"China"},{"city_name":"Xi’an","country_code":"CN","latitude":"34.25833","longitude":"108.92861","country_name":"China"},{"city_name":"Xiamen","country_code":"CN","latitude":"24.47979","longitude":"118.08187","country_name":"China"},{"city_name":"Wuxi","country_code":"CN","latitude":"31.56887","longitude":"120.28857","country_name":"China"},{"city_name":"Changde","country_code":"CN","latitude":"29.03205","longitude":"111.69844","country_name":"China"},{"city_name":"Wuhu","country_code":"CN","latitude":"31.33728","longitude":"118.37351","country_name":"China"},{"city_name":"Wuhan","country_code":"CN","latitude":"30.58333","longitude":"114.26667","country_name":"China"},{"city_name":"Wenzhou","country_code":"CN","latitude":"27.99942","longitude":"120.66682","country_name":"China"},{"city_name":"Weifang","country_code":"CN","latitude":"36.71","longitude":"119.10194","country_name":"China"},{"city_name":"Wusong","country_code":"CN","latitude":"30.95","longitude":"117.78333","country_name":"China"},{"city_name":"Tianshui","country_code":"CN","latitude":"34.57952","longitude":"105.74238","country_name":"China"},{"city_name":"Tianjin","country_code":"CN","latitude":"39.14222","longitude":"117.17667","country_name":"China"},{"city_name":"Tangshan","country_code":"CN","latitude":"39.63333","longitude":"118.18333","country_name":"China"},{"city_name":"Tanggu","country_code":"CN","latitude":"39.02111","longitude":"117.64694","country_name":"China"},{"city_name":"Taizhou","country_code":"CN","latitude":"32.49069","longitude":"119.90812","country_name":"China"},{"city_name":"Taiyuan","country_code":"CN","latitude":"37.86944","longitude":"112.56028","country_name":"China"},{"city_name":"Tai’an","country_code":"CN","latitude":"36.18528","longitude":"117.12","country_name":"China"},{"city_name":"Suizhou","country_code":"CN","latitude":"31.71111","longitude":"113.36306","country_name":"China"},{"city_name":"Shiyan","country_code":"CN","latitude":"32.6475","longitude":"110.77806","country_name":"China"},{"city_name":"Shiqi","country_code":"CN","latitude":"22.51682","longitude":"113.38521","country_name":"China"},{"city_name":"Shijiazhuang","country_code":"CN","latitude":"38.04139","longitude":"114.47861","country_name":"China"},{"city_name":"Shenzhen","country_code":"CN","latitude":"22.54554","longitude":"114.0683","country_name":"China"},{"city_name":"Shashi","country_code":"CN","latitude":"30.30722","longitude":"112.24472","country_name":"China"},{"city_name":"Shaoxing","country_code":"CN","latitude":"30.00237","longitude":"120.57864","country_name":"China"},{"city_name":"Shaoguan","country_code":"CN","latitude":"24.8","longitude":"113.58333","country_name":"China"},{"city_name":"Shantou","country_code":"CN","latitude":"23.36814","longitude":"116.71479","country_name":"China"},{"city_name":"Shanghai","country_code":"CN","latitude":"31.22222","longitude":"121.45806","country_name":"China"},{"city_name":"Jieyang","country_code":"CN","latitude":"23.5418","longitude":"116.36581","country_name":"China"},{"city_name":"Qinhuangdao","country_code":"CN","latitude":"39.93167","longitude":"119.58833","country_name":"China"},{"city_name":"Huai'an","country_code":"CN","latitude":"33.58861","longitude":"119.01917","country_name":"China"},{"city_name":"Qingdao","country_code":"CN","latitude":"36.06488","longitude":"120.38042","country_name":"China"},{"city_name":"Puyang Chengguanzhen","country_code":"CN","latitude":"35.70506","longitude":"115.01409","country_name":"China"},{"city_name":"Puyang","country_code":"CN","latitude":"29.45679","longitude":"119.88872","country_name":"China"},{"city_name":"Putian","country_code":"CN","latitude":"25.43944","longitude":"119.01028","country_name":"China"},{"city_name":"Pingxiang","country_code":"CN","latitude":"27.61672","longitude":"113.85353","country_name":"China"},{"city_name":"Pingdingshan","country_code":"CN","latitude":"33.73847","longitude":"113.30119","country_name":"China"},{"city_name":"Dadukou","country_code":"CN","latitude":"26.5479","longitude":"101.70539","country_name":"China"},{"city_name":"Ningbo","country_code":"CN","latitude":"29.87819","longitude":"121.54945","country_name":"China"},{"city_name":"Neijiang","country_code":"CN","latitude":"29.58354","longitude":"105.06216","country_name":"China"},{"city_name":"Nantong","country_code":"CN","latitude":"32.03028","longitude":"120.87472","country_name":"China"},{"city_name":"Nanning","country_code":"CN","latitude":"22.81667","longitude":"108.31667","country_name":"China"},{"city_name":"Nanjing","country_code":"CN","latitude":"32.06167","longitude":"118.77778","country_name":"China"},{"city_name":"Nanchong","country_code":"CN","latitude":"30.79508","longitude":"106.08473","country_name":"China"},{"city_name":"Nanchang","country_code":"CN","latitude":"28.68396","longitude":"115.85306","country_name":"China"},{"city_name":"Luqiao","country_code":"CN","latitude":"28.58023","longitude":"121.37491","country_name":"China"},{"city_name":"Luoyang","country_code":"CN","latitude":"34.68361","longitude":"112.45361","country_name":"China"},{"city_name":"Luohe","country_code":"CN","latitude":"33.56394","longitude":"114.04272","country_name":"China"},{"city_name":"Luancheng","country_code":"CN","latitude":"37.87917","longitude":"114.65167","country_name":"China"},{"city_name":"Guankou","country_code":"CN","latitude":"28.15861","longitude":"113.62709","country_name":"China"},{"city_name":"Wuwei","country_code":"CN","latitude":"37.92672","longitude":"102.63202","country_name":"China"},{"city_name":"Lanzhou","country_code":"CN","latitude":"36.05701","longitude":"103.83987","country_name":"China"},{"city_name":"Langfang","country_code":"CN","latitude":"39.50972","longitude":"116.69472","country_name":"China"},{"city_name":"Kunming","country_code":"CN","latitude":"25.03889","longitude":"102.71833","country_name":"China"},{"city_name":"Kaifeng","country_code":"CN","latitude":"34.7986","longitude":"114.30742","country_name":"China"},{"city_name":"Jining","country_code":"CN","latitude":"35.405","longitude":"116.58139","country_name":"China"},{"city_name":"Jingdezhen","country_code":"CN","latitude":"29.2947","longitude":"117.20789","country_name":"China"},{"city_name":"Jincheng","country_code":"CN","latitude":"35.50222","longitude":"112.83278","country_name":"China"},{"city_name":"Jinan","country_code":"CN","latitude":"36.66833","longitude":"116.99722","country_name":"China"},{"city_name":"Jiaxing","country_code":"CN","latitude":"30.7522","longitude":"120.75","country_name":"China"},{"city_name":"Jiaozuo","country_code":"CN","latitude":"35.23972","longitude":"113.23306","country_name":"China"},{"city_name":"Jiangmen","country_code":"CN","latitude":"22.58333","longitude":"113.08333","country_name":"China"},{"city_name":"Yangjiang","country_code":"CN","latitude":"21.85563","longitude":"111.96272","country_name":"China"},{"city_name":"Qionghai","country_code":"CN","latitude":"19.2425","longitude":"110.46417","country_name":"China"},{"city_name":"Huangshi","country_code":"CN","latitude":"30.24706","longitude":"115.04814","country_name":"China"},{"city_name":"Huainan","country_code":"CN","latitude":"32.62639","longitude":"116.99694","country_name":"China"},{"city_name":"Huaibei","country_code":"CN","latitude":"33.97444","longitude":"116.79167","country_name":"China"},{"city_name":"Hengyang","country_code":"CN","latitude":"26.88946","longitude":"112.61888","country_name":"China"},{"city_name":"Hengshui","country_code":"CN","latitude":"37.73222","longitude":"115.70111","country_name":"China"},{"city_name":"Hefei","country_code":"CN","latitude":"31.86389","longitude":"117.28083","country_name":"China"},{"city_name":"Hangzhou","country_code":"CN","latitude":"30.29365","longitude":"120.16142","country_name":"China"},{"city_name":"Handan","country_code":"CN","latitude":"36.60056","longitude":"114.46778","country_name":"China"},{"city_name":"Jiaojiang","country_code":"CN","latitude":"28.69844","longitude":"121.47331","country_name":"China"},{"city_name":"Haikou","country_code":"CN","latitude":"20.04583","longitude":"110.34167","country_name":"China"},{"city_name":"Guli","country_code":"CN","latitude":"28.88162","longitude":"120.03308","country_name":"China"},{"city_name":"Guiyang","country_code":"CN","latitude":"26.58333","longitude":"106.71667","country_name":"China"},{"city_name":"Guilin","country_code":"CN","latitude":"25.28194","longitude":"110.28639","country_name":"China"},{"city_name":"Guangzhou","country_code":"CN","latitude":"23.11667","longitude":"113.25","country_name":"China"},{"city_name":"Fuzhou","country_code":"CN","latitude":"26.06139","longitude":"119.30611","country_name":"China"},{"city_name":"Foshan","country_code":"CN","latitude":"23.02677","longitude":"113.13148","country_name":"China"},{"city_name":"Shengli","country_code":"CN","latitude":"37.46271","longitude":"118.49165","country_name":"China"},{"city_name":"Dongguan","country_code":"CN","latitude":"23.01797","longitude":"113.74866","country_name":"China"},{"city_name":"Dezhou","country_code":"CN","latitude":"37.45127","longitude":"116.31046","country_name":"China"},{"city_name":"Lijiang","country_code":"CN","latitude":"26.86879","longitude":"100.22072","country_name":"China"},{"city_name":"Dalian","country_code":"CN","latitude":"38.91222","longitude":"121.60222","country_name":"China"},{"city_name":"Chongqing","country_code":"CN","latitude":"29.56278","longitude":"106.55278","country_name":"China"},{"city_name":"Chengdu","country_code":"CN","latitude":"30.66667","longitude":"104.06667","country_name":"China"},{"city_name":"Chaozhou","country_code":"CN","latitude":"23.65396","longitude":"116.62262","country_name":"China"},{"city_name":"Changzhou","country_code":"CN","latitude":"31.77359","longitude":"119.95401","country_name":"China"},{"city_name":"Changzhi","country_code":"CN","latitude":"35.20889","longitude":"111.73861","country_name":"China"},{"city_name":"Changsha","country_code":"CN","latitude":"28.19874","longitude":"112.97087","country_name":"China"},{"city_name":"Cangzhou","country_code":"CN","latitude":"38.31667","longitude":"116.86667","country_name":"China"},{"city_name":"Bengbu","country_code":"CN","latitude":"32.94083","longitude":"117.36083","country_name":"China"},{"city_name":"Beijing","country_code":"CN","latitude":"39.9075","longitude":"116.39723","country_name":"China"},{"city_name":"Baoding","country_code":"CN","latitude":"38.85111","longitude":"115.49028","country_name":"China"},{"city_name":"Shangyu","country_code":"CN","latitude":"30.01556","longitude":"120.87111","country_name":"China"},{"city_name":"Anshun","country_code":"CN","latitude":"26.25","longitude":"105.93333","country_name":"China"},{"city_name":"Anqing","country_code":"CN","latitude":"30.51365","longitude":"117.04723","country_name":"China"},{"city_name":"Suzhou","country_code":"CN","latitude":"31.30408","longitude":"120.59538","country_name":"China"},{"city_name":"Zhongshan","country_code":"CN","latitude":"21.31992","longitude":"110.5723","country_name":"China"},{"city_name":"Dadonghai","country_code":"CN","latitude":"18.22056","longitude":"109.51028","country_name":"China"},{"city_name":"Yueyang","country_code":"CN","latitude":"29.37455","longitude":"113.09481","country_name":"China"},{"city_name":"Zhangjiakou","country_code":"CN","latitude":"40.81","longitude":"114.87944","country_name":"China"},{"city_name":"Yingkou","country_code":"CN","latitude":"40.66482","longitude":"122.22833","country_name":"China"},{"city_name":"Yanji","country_code":"CN","latitude":"42.9075","longitude":"129.50778","country_name":"China"},{"city_name":"Zhangjiakou Shi Xuanhua Qu","country_code":"CN","latitude":"40.61028","longitude":"115.04472","country_name":"China"},{"city_name":"Tonghua","country_code":"CN","latitude":"41.71972","longitude":"125.92639","country_name":"China"},{"city_name":"Tieling","country_code":"CN","latitude":"42.29306","longitude":"123.84139","country_name":"China"},{"city_name":"Siping","country_code":"CN","latitude":"43.16143","longitude":"124.37785","country_name":"China"},{"city_name":"Shuangyashan","country_code":"CN","latitude":"46.63611","longitude":"131.15389","country_name":"China"},{"city_name":"Shenyang","country_code":"CN","latitude":"41.79222","longitude":"123.43278","country_name":"China"},{"city_name":"Taihecun","country_code":"CN","latitude":"45.76347","longitude":"130.85048","country_name":"China"},{"city_name":"Qiqihar","country_code":"CN","latitude":"47.34088","longitude":"123.96045","country_name":"China"},{"city_name":"Panshan","country_code":"CN","latitude":"41.18806","longitude":"122.04944","country_name":"China"},{"city_name":"Mudanjiang","country_code":"CN","latitude":"44.58333","longitude":"129.6","country_name":"China"},{"city_name":"Liaoyuan","country_code":"CN","latitude":"42.90361","longitude":"125.13583","country_name":"China"},{"city_name":"Liaoyang","country_code":"CN","latitude":"41.27194","longitude":"123.17306","country_name":"China"},{"city_name":"Jixi","country_code":"CN","latitude":"45.30109","longitude":"130.95718","country_name":"China"},{"city_name":"Jinzhou","country_code":"CN","latitude":"41.10778","longitude":"121.14167","country_name":"China"},{"city_name":"Lianshan","country_code":"CN","latitude":"40.76432","longitude":"120.85327","country_name":"China"},{"city_name":"Jilin","country_code":"CN","latitude":"43.85083","longitude":"126.56028","country_name":"China"},{"city_name":"Jiamusi","country_code":"CN","latitude":"46.79927","longitude":"130.31633","country_name":"China"},{"city_name":"Hohhot","country_code":"CN","latitude":"40.81056","longitude":"111.65222","country_name":"China"},{"city_name":"Hegang","country_code":"CN","latitude":"47.35118","longitude":"130.30012","country_name":"China"},{"city_name":"Harbin","country_code":"CN","latitude":"45.75","longitude":"126.65","country_name":"China"},{"city_name":"Fuxin","country_code":"CN","latitude":"42.01556","longitude":"121.65889","country_name":"China"},{"city_name":"Fushun","country_code":"CN","latitude":"41.88669","longitude":"123.94363","country_name":"China"},{"city_name":"Datong","country_code":"CN","latitude":"40.09361","longitude":"113.29139","country_name":"China"},{"city_name":"Dandong","country_code":"CN","latitude":"40.12917","longitude":"124.39472","country_name":"China"},{"city_name":"Chifeng","country_code":"CN","latitude":"42.26833","longitude":"118.96361","country_name":"China"},{"city_name":"Chengde","country_code":"CN","latitude":"40.9519","longitude":"117.95883","country_name":"China"},{"city_name":"Chaoyang","country_code":"CN","latitude":"41.57028","longitude":"120.45861","country_name":"China"},{"city_name":"Changchun","country_code":"CN","latitude":"43.88","longitude":"125.32278","country_name":"China"},{"city_name":"Benxi","country_code":"CN","latitude":"41.28861","longitude":"123.765","country_name":"China"},{"city_name":"Bei’an","country_code":"CN","latitude":"48.26667","longitude":"126.6","country_name":"China"},{"city_name":"Baotou","country_code":"CN","latitude":"40.58337","longitude":"110.01669","country_name":"China"},{"city_name":"Baicheng","country_code":"CN","latitude":"45.60746","longitude":"122.82076","country_name":"China"},{"city_name":"Anshan","country_code":"CN","latitude":"41.12361","longitude":"122.99","country_name":"China"},{"city_name":"Changshu City","country_code":"CN","latitude":"31.64615","longitude":"120.74221","country_name":"China"},{"city_name":"Fenghuang","country_code":"CN","latitude":"27.93557","longitude":"109.59961","country_name":"China"},{"city_name":"Zhu Cheng City","country_code":"CN","latitude":"35.99502","longitude":"119.40259","country_name":"China"},{"city_name":"Ordos","country_code":"CN","latitude":"39.6086","longitude":"109.78157","country_name":"China"},{"city_name":"Wenshan City","country_code":"CN","latitude":"23.36306","longitude":"104.25047","country_name":"China"},{"city_name":"Jianshui","country_code":"CN","latitude":"24.2774","longitude":"101.224","country_name":"China"},{"city_name":"Huocheng","country_code":"CN","latitude":"44.05305","longitude":"80.87173","country_name":"China"},{"city_name":"Bayan Nur","country_code":"CN","latitude":"40.74143","longitude":"107.38599","country_name":"China"},{"city_name":"Villavicencio","country_code":"CO","latitude":"4.142","longitude":"-73.62664","country_name":"Colombia"},{"city_name":"Valledupar","country_code":"CO","latitude":"10.46314","longitude":"-73.25322","country_name":"Colombia"},{"city_name":"Soledad","country_code":"CO","latitude":"10.91843","longitude":"-74.76459","country_name":"Colombia"},{"city_name":"Soacha","country_code":"CO","latitude":"4.57937","longitude":"-74.21682","country_name":"Colombia"},{"city_name":"Santa Marta","country_code":"CO","latitude":"11.24079","longitude":"-74.19904","country_name":"Colombia"},{"city_name":"Pereira","country_code":"CO","latitude":"4.81333","longitude":"-75.69611","country_name":"Colombia"},{"city_name":"Pasto","country_code":"CO","latitude":"1.21361","longitude":"-77.28111","country_name":"Colombia"},{"city_name":"Neiva","country_code":"CO","latitude":"2.9273","longitude":"-75.28189","country_name":"Colombia"},{"city_name":"Medellín","country_code":"CO","latitude":"6.25184","longitude":"-75.56359","country_name":"Colombia"},{"city_name":"Manizales","country_code":"CO","latitude":"5.06889","longitude":"-75.51738","country_name":"Colombia"},{"city_name":"Ibagué","country_code":"CO","latitude":"4.43889","longitude":"-75.23222","country_name":"Colombia"},{"city_name":"Cúcuta","country_code":"CO","latitude":"7.89391","longitude":"-72.50782","country_name":"Colombia"},{"city_name":"Cartagena","country_code":"CO","latitude":"10.39972","longitude":"-75.51444","country_name":"Colombia"},{"city_name":"Cali","country_code":"CO","latitude":"3.43722","longitude":"-76.5225","country_name":"Colombia"},{"city_name":"Bucaramanga","country_code":"CO","latitude":"7.12539","longitude":"-73.1198","country_name":"Colombia"},{"city_name":"Bogotá","country_code":"CO","latitude":"4.60971","longitude":"-74.08175","country_name":"Colombia"},{"city_name":"Bello","country_code":"CO","latitude":"6.33732","longitude":"-75.55795","country_name":"Colombia"},{"city_name":"Barranquilla","country_code":"CO","latitude":"10.96854","longitude":"-74.78132","country_name":"Colombia"},{"city_name":"Armenia","country_code":"CO","latitude":"4.53389","longitude":"-75.68111","country_name":"Colombia"},{"city_name":"San José","country_code":"CR","latitude":"9.93333","longitude":"-84.08333","country_name":"Costa Rica"},{"city_name":"Santiago de Cuba","country_code":"CU","latitude":"20.02083","longitude":"-75.82667","country_name":"Cuba"},{"city_name":"Havana","country_code":"CU","latitude":"23.13302","longitude":"-82.38304","country_name":"Cuba"},{"city_name":"Holguín","country_code":"CU","latitude":"20.88722","longitude":"-76.26306","country_name":"Cuba"},{"city_name":"Camagüey","country_code":"CU","latitude":"21.38083","longitude":"-77.91694","country_name":"Cuba"},{"city_name":"Prague","country_code":"CZ","latitude":"50.08804","longitude":"14.42076","country_name":"Czechia"},{"city_name":"Ostrava","country_code":"CZ","latitude":"49.83465","longitude":"18.28204","country_name":"Czechia"},{"city_name":"Brno","country_code":"CZ","latitude":"49.19522","longitude":"16.60796","country_name":"Czechia"},{"city_name":"Wuppertal","country_code":"DE","latitude":"51.25627","longitude":"7.14816","country_name":"Germany"},{"city_name":"Stuttgart","country_code":"DE","latitude":"48.78232","longitude":"9.17702","country_name":"Germany"},{"city_name":"Nürnberg","country_code":"DE","latitude":"49.45421","longitude":"11.07752","country_name":"Germany"},{"city_name":"Munich","country_code":"DE","latitude":"48.13743","longitude":"11.57549","country_name":"Germany"},{"city_name":"Mannheim","country_code":"DE","latitude":"49.4891","longitude":"8.46694","country_name":"Germany"},{"city_name":"Leipzig","country_code":"DE","latitude":"51.33962","longitude":"12.37129","country_name":"Germany"},{"city_name":"Köln","country_code":"DE","latitude":"50.93333","longitude":"6.95","country_name":"Germany"},{"city_name":"Hannover","country_code":"DE","latitude":"52.37052","longitude":"9.73322","country_name":"Germany"},{"city_name":"Wandsbek","country_code":"DE","latitude":"53.58334","longitude":"10.08305","country_name":"Germany"},{"city_name":"Hamburg","country_code":"DE","latitude":"53.55073","longitude":"9.99302","country_name":"Germany"},{"city_name":"Frankfurt am Main","country_code":"DE","latitude":"50.11552","longitude":"8.68417","country_name":"Germany"},{"city_name":"Essen","country_code":"DE","latitude":"51.45657","longitude":"7.01228","country_name":"Germany"},{"city_name":"Düsseldorf","country_code":"DE","latitude":"51.22172","longitude":"6.77616","country_name":"Germany"},{"city_name":"Duisburg","country_code":"DE","latitude":"51.43247","longitude":"6.76516","country_name":"Germany"},{"city_name":"Dresden","country_code":"DE","latitude":"51.05089","longitude":"13.73832","country_name":"Germany"},{"city_name":"Dortmund","country_code":"DE","latitude":"51.51494","longitude":"7.466","country_name":"Germany"},{"city_name":"Bremen","country_code":"DE","latitude":"53.07582","longitude":"8.80717","country_name":"Germany"},{"city_name":"Bonn","country_code":"DE","latitude":"50.73438","longitude":"7.09549","country_name":"Germany"},{"city_name":"Bochum","country_code":"DE","latitude":"51.48165","longitude":"7.21648","country_name":"Germany"},{"city_name":"Bielefeld","country_code":"DE","latitude":"52.03333","longitude":"8.53333","country_name":"Germany"},{"city_name":"Berlin","country_code":"DE","latitude":"52.52437","longitude":"13.41053","country_name":"Germany"},{"city_name":"Bochum-Hordel","country_code":"DE","latitude":"51.50168","longitude":"7.1756","country_name":"Germany"},{"city_name":"Djibouti","country_code":"DJ","latitude":"11.58901","longitude":"43.14503","country_name":"Djibouti"},{"city_name":"Copenhagen","country_code":"DK","latitude":"55.67594","longitude":"12.56553","country_name":"Denmark"},{"city_name":"Santo Domingo","country_code":"DO","latitude":"18.47186","longitude":"-69.89232","country_name":"Dominican Republic"},{"city_name":"Santiago de los Caballeros","country_code":"DO","latitude":"19.4517","longitude":"-70.69703","country_name":"Dominican Republic"},{"city_name":"Santo Domingo Oeste","country_code":"DO","latitude":"18.5","longitude":"-70","country_name":"Dominican Republic"},{"city_name":"Santo Domingo Este","country_code":"DO","latitude":"18.48847","longitude":"-69.85707","country_name":"Dominican Republic"},{"city_name":"Boumerdas","country_code":"DZ","latitude":"36.76639","longitude":"3.47717","country_name":"Algeria"},{"city_name":"Tébessa","country_code":"DZ","latitude":"35.40417","longitude":"8.12417","country_name":"Algeria"},{"city_name":"Oran","country_code":"DZ","latitude":"35.69906","longitude":"-0.63588","country_name":"Algeria"},{"city_name":"Constantine","country_code":"DZ","latitude":"36.365","longitude":"6.61472","country_name":"Algeria"},{"city_name":"Biskra","country_code":"DZ","latitude":"34.85038","longitude":"5.72805","country_name":"Algeria"},{"city_name":"Algiers","country_code":"DZ","latitude":"36.73225","longitude":"3.08746","country_name":"Algeria"},{"city_name":"Quito","country_code":"EC","latitude":"-0.22985","longitude":"-78.52495","country_name":"Ecuador"},{"city_name":"Guayaquil","country_code":"EC","latitude":"-2.19616","longitude":"-79.88621","country_name":"Ecuador"},{"city_name":"Tallinn","country_code":"EE","latitude":"59.43696","longitude":"24.75353","country_name":"Estonia"},{"city_name":"Tanda","country_code":"EG","latitude":"30.78847","longitude":"31.00192","country_name":"Egypt"},{"city_name":"Port Said","country_code":"EG","latitude":"31.26531","longitude":"32.3019","country_name":"Egypt"},{"city_name":"Asyūţ","country_code":"EG","latitude":"27.18096","longitude":"31.18368","country_name":"Egypt"},{"city_name":"Suez","country_code":"EG","latitude":"29.97371","longitude":"32.52627","country_name":"Egypt"},{"city_name":"Luxor","country_code":"EG","latitude":"25.69893","longitude":"32.6421","country_name":"Egypt"},{"city_name":"Cairo","country_code":"EG","latitude":"30.06263","longitude":"31.24967","country_name":"Egypt"},{"city_name":"Al Manşūrah","country_code":"EG","latitude":"31.03637","longitude":"31.38069","country_name":"Egypt"},{"city_name":"Al Maḩallah al Kubrá","country_code":"EG","latitude":"30.97063","longitude":"31.1669","country_name":"Egypt"},{"city_name":"Giza","country_code":"EG","latitude":"30.00944","longitude":"31.20861","country_name":"Egypt"},{"city_name":"Alexandria","country_code":"EG","latitude":"31.20176","longitude":"29.91582","country_name":"Egypt"},{"city_name":"Al Fayyūm","country_code":"EG","latitude":"29.30995","longitude":"30.8418","country_name":"Egypt"},{"city_name":"Asmara","country_code":"ER","latitude":"15.33805","longitude":"38.93184","country_name":"Eritrea"},{"city_name":"Valencia","country_code":"ES","latitude":"39.46975","longitude":"-0.37739","country_name":"Spain"},{"city_name":"Sevilla","country_code":"ES","latitude":"37.38283","longitude":"-5.97317","country_name":"Spain"},{"city_name":"Palma","country_code":"ES","latitude":"39.56939","longitude":"2.65024","country_name":"Spain"},{"city_name":"Murcia","country_code":"ES","latitude":"37.98704","longitude":"-1.13004","country_name":"Spain"},{"city_name":"Málaga","country_code":"ES","latitude":"36.72016","longitude":"-4.42034","country_name":"Spain"},{"city_name":"Las Palmas de Gran Canaria","country_code":"ES","latitude":"28.09973","longitude":"-15.41343","country_name":"Spain"},{"city_name":"Córdoba","country_code":"ES","latitude":"37.89155","longitude":"-4.77275","country_name":"Spain"},{"city_name":"Alicante","country_code":"ES","latitude":"38.34517","longitude":"-0.48149","country_name":"Spain"},{"city_name":"Zaragoza","country_code":"ES","latitude":"41.65606","longitude":"-0.87734","country_name":"Spain"},{"city_name":"Valladolid","country_code":"ES","latitude":"41.65518","longitude":"-4.72372","country_name":"Spain"},{"city_name":"Madrid","country_code":"ES","latitude":"40.4165","longitude":"-3.70256","country_name":"Spain"},{"city_name":"Bilbao","country_code":"ES","latitude":"43.26271","longitude":"-2.92528","country_name":"Spain"},{"city_name":"Barcelona","country_code":"ES","latitude":"41.38879","longitude":"2.15899","country_name":"Spain"},{"city_name":"Addis Ababa","country_code":"ET","latitude":"9.02497","longitude":"38.74689","country_name":"Ethiopia"},{"city_name":"Helsinki","country_code":"FI","latitude":"60.16952","longitude":"24.93545","country_name":"Finland"},{"city_name":"Toulouse","country_code":"FR","latitude":"43.60426","longitude":"1.44367","country_name":"France"},{"city_name":"Paris","country_code":"FR","latitude":"48.85341","longitude":"2.3488","country_name":"France"},{"city_name":"Nice","country_code":"FR","latitude":"43.70313","longitude":"7.26608","country_name":"France"},{"city_name":"Marseille","country_code":"FR","latitude":"43.29695","longitude":"5.38107","country_name":"France"},{"city_name":"Lyon","country_code":"FR","latitude":"45.74846","longitude":"4.84671","country_name":"France"},{"city_name":"Libreville","country_code":"GA","latitude":"0.39241","longitude":"9.45356","country_name":"Gabon"},{"city_name":"Swansea","country_code":"GB","latitude":"51.62079","longitude":"-3.94323","country_name":"United Kingdom"},{"city_name":"Sunderland","country_code":"GB","latitude":"54.90465","longitude":"-1.38222","country_name":"United Kingdom"},{"city_name":"Stoke-on-Trent","country_code":"GB","latitude":"53.00415","longitude":"-2.18538","country_name":"United Kingdom"},{"city_name":"Sheffield","country_code":"GB","latitude":"53.38297","longitude":"-1.4659","country_name":"United Kingdom"},{"city_name":"Reading","country_code":"GB","latitude":"51.45625","longitude":"-0.97113","country_name":"United Kingdom"},{"city_name":"Preston","country_code":"GB","latitude":"53.76282","longitude":"-2.70452","country_name":"United Kingdom"},{"city_name":"Nottingham","country_code":"GB","latitude":"52.9536","longitude":"-1.15047","country_name":"United Kingdom"},{"city_name":"Newport","country_code":"GB","latitude":"51.58774","longitude":"-2.99835","country_name":"United Kingdom"},{"city_name":"Manchester","country_code":"GB","latitude":"53.48095","longitude":"-2.23743","country_name":"United Kingdom"},{"city_name":"London","country_code":"GB","latitude":"51.50853","longitude":"-0.12574","country_name":"United Kingdom"},{"city_name":"Liverpool","country_code":"GB","latitude":"53.41058","longitude":"-2.97794","country_name":"United Kingdom"},{"city_name":"Leicester","country_code":"GB","latitude":"52.6386","longitude":"-1.13169","country_name":"United Kingdom"},{"city_name":"Leeds","country_code":"GB","latitude":"53.79648","longitude":"-1.54785","country_name":"United Kingdom"},{"city_name":"Kingston upon Hull","country_code":"GB","latitude":"53.7446","longitude":"-0.33525","country_name":"United Kingdom"},{"city_name":"Islington","country_code":"GB","latitude":"51.53622","longitude":"-0.10304","country_name":"United Kingdom"},{"city_name":"Glasgow","country_code":"GB","latitude":"55.86515","longitude":"-4.25763","country_name":"United Kingdom"},{"city_name":"Edinburgh","country_code":"GB","latitude":"55.95206","longitude":"-3.19648","country_name":"United Kingdom"},{"city_name":"Coventry","country_code":"GB","latitude":"52.40656","longitude":"-1.51217","country_name":"United Kingdom"},{"city_name":"Cardiff","country_code":"GB","latitude":"51.48","longitude":"-3.18","country_name":"United Kingdom"},{"city_name":"Bristol","country_code":"GB","latitude":"51.45523","longitude":"-2.59665","country_name":"United Kingdom"},{"city_name":"Brent","country_code":"GB","latitude":"51.55306","longitude":"-0.3023","country_name":"United Kingdom"},{"city_name":"Birmingham","country_code":"GB","latitude":"52.48142","longitude":"-1.89983","country_name":"United Kingdom"},{"city_name":"Birkenhead","country_code":"GB","latitude":"53.39337","longitude":"-3.01479","country_name":"United Kingdom"},{"city_name":"Tbilisi","country_code":"GE","latitude":"41.69411","longitude":"44.83368","country_name":"Georgia"},{"city_name":"Tamale","country_code":"GH","latitude":"9.40079","longitude":"-0.8393","country_name":"Ghana"},{"city_name":"Kumasi","country_code":"GH","latitude":"6.68848","longitude":"-1.62443","country_name":"Ghana"},{"city_name":"Accra","country_code":"GH","latitude":"5.55602","longitude":"-0.1969","country_name":"Ghana"},{"city_name":"Serekunda","country_code":"GM","latitude":"13.43833","longitude":"-16.67806","country_name":"Gambia"},{"city_name":"Conakry","country_code":"GN","latitude":"9.53795","longitude":"-13.67729","country_name":"Guinea"},{"city_name":"Camayenne","country_code":"GN","latitude":"9.535","longitude":"-13.68778","country_name":"Guinea"},{"city_name":"Athens","country_code":"GR","latitude":"37.98376","longitude":"23.72784","country_name":"Greece"},{"city_name":"Thessaloníki","country_code":"GR","latitude":"40.64361","longitude":"22.93086","country_name":"Greece"},{"city_name":"Villa Nueva","country_code":"GT","latitude":"14.52512","longitude":"-90.58544","country_name":"Guatemala"},{"city_name":"Mixco","country_code":"GT","latitude":"14.63077","longitude":"-90.60711","country_name":"Guatemala"},{"city_name":"Guatemala City","country_code":"GT","latitude":"14.64072","longitude":"-90.51327","country_name":"Guatemala"},{"city_name":"Bissau","country_code":"GW","latitude":"11.86357","longitude":"-15.59767","country_name":"Guinea-Bissau"},{"city_name":"Kowloon","country_code":"HK","latitude":"22.31667","longitude":"114.18333","country_name":"Hong Kong"},{"city_name":"Hong Kong","country_code":"HK","latitude":"22.27832","longitude":"114.17469","country_name":"Hong Kong"},{"city_name":"Tegucigalpa","country_code":"HN","latitude":"14.0818","longitude":"-87.20681","country_name":"Honduras"},{"city_name":"San Pedro Sula","country_code":"HN","latitude":"15.50417","longitude":"-88.025","country_name":"Honduras"},{"city_name":"Zagreb","country_code":"HR","latitude":"45.81444","longitude":"15.97798","country_name":"Croatia"},{"city_name":"Port-au-Prince","country_code":"HT","latitude":"18.54349","longitude":"-72.33881","country_name":"Haiti"},{"city_name":"Delmas 73","country_code":"HT","latitude":"18.54472","longitude":"-72.30278","country_name":"Haiti"},{"city_name":"Carrefour","country_code":"HT","latitude":"18.54114","longitude":"-72.39922","country_name":"Haiti"},{"city_name":"Budapest","country_code":"HU","latitude":"47.49835","longitude":"19.04045","country_name":"Hungary"},{"city_name":"Percut","country_code":"ID","latitude":"3.6253","longitude":"98.864","country_name":"Indonesia"},{"city_name":"Medan","country_code":"ID","latitude":"3.58333","longitude":"98.66667","country_name":"Indonesia"},{"city_name":"Yogyakarta","country_code":"ID","latitude":"-7.80139","longitude":"110.36472","country_name":"Indonesia"},{"city_name":"Makassar","country_code":"ID","latitude":"-5.14861","longitude":"119.43194","country_name":"Indonesia"},{"city_name":"Bandar Lampung","country_code":"ID","latitude":"-5.42917","longitude":"105.26111","country_name":"Indonesia"},{"city_name":"Tangerang","country_code":"ID","latitude":"-6.17806","longitude":"106.63","country_name":"Indonesia"},{"city_name":"Surakarta","country_code":"ID","latitude":"-7.55611","longitude":"110.83167","country_name":"Indonesia"},{"city_name":"Surabaya","country_code":"ID","latitude":"-7.24917","longitude":"112.75083","country_name":"Indonesia"},{"city_name":"Situbondo","country_code":"ID","latitude":"-7.70623","longitude":"114.00976","country_name":"Indonesia"},{"city_name":"Semarang","country_code":"ID","latitude":"-6.99306","longitude":"110.42083","country_name":"Indonesia"},{"city_name":"Samarinda","country_code":"ID","latitude":"-0.49167","longitude":"117.14583","country_name":"Indonesia"},{"city_name":"Pontianak","country_code":"ID","latitude":"-0.03194","longitude":"109.325","country_name":"Indonesia"},{"city_name":"Pekanbaru","country_code":"ID","latitude":"0.51667","longitude":"101.44167","country_name":"Indonesia"},{"city_name":"Palembang","country_code":"ID","latitude":"-2.91673","longitude":"104.7458","country_name":"Indonesia"},{"city_name":"Padang","country_code":"ID","latitude":"-0.94924","longitude":"100.35427","country_name":"Indonesia"},{"city_name":"Mataram","country_code":"ID","latitude":"-8.58333","longitude":"116.11667","country_name":"Indonesia"},{"city_name":"Manado","country_code":"ID","latitude":"1.48218","longitude":"124.84892","country_name":"Indonesia"},{"city_name":"Malang","country_code":"ID","latitude":"-7.9797","longitude":"112.6304","country_name":"Indonesia"},{"city_name":"Jambi City","country_code":"ID","latitude":"-1.6","longitude":"103.61667","country_name":"Indonesia"},{"city_name":"Jakarta","country_code":"ID","latitude":"-6.21462","longitude":"106.84513","country_name":"Indonesia"},{"city_name":"Depok","country_code":"ID","latitude":"-6.4","longitude":"106.81861","country_name":"Indonesia"},{"city_name":"Denpasar","country_code":"ID","latitude":"-8.65","longitude":"115.21667","country_name":"Indonesia"},{"city_name":"Cimahi","country_code":"ID","latitude":"-6.87222","longitude":"107.5425","country_name":"Indonesia"},{"city_name":"Bogor","country_code":"ID","latitude":"-6.59444","longitude":"106.78917","country_name":"Indonesia"},{"city_name":"Bengkulu","country_code":"ID","latitude":"-3.80044","longitude":"102.26554","country_name":"Indonesia"},{"city_name":"Bekasi","country_code":"ID","latitude":"-6.2349","longitude":"106.9896","country_name":"Indonesia"},{"city_name":"Banjarmasin","country_code":"ID","latitude":"-3.31987","longitude":"114.59075","country_name":"Indonesia"},{"city_name":"Bandung","country_code":"ID","latitude":"-6.92222","longitude":"107.60694","country_name":"Indonesia"},{"city_name":"Balikpapan","country_code":"ID","latitude":"-1.26753","longitude":"116.82887","country_name":"Indonesia"},{"city_name":"Ambon","country_code":"ID","latitude":"-3.69583","longitude":"128.18333","country_name":"Indonesia"},{"city_name":"Batam","country_code":"ID","latitude":"1.14937","longitude":"104.02491","country_name":"Indonesia"},{"city_name":"City of Balikpapan","country_code":"ID","latitude":"-1.24204","longitude":"116.89419","country_name":"Indonesia"},{"city_name":"South Tangerang","country_code":"ID","latitude":"-6.28862","longitude":"106.71789","country_name":"Indonesia"},{"city_name":"Dublin","country_code":"IE","latitude":"53.33306","longitude":"-6.24889","country_name":"Ireland"},{"city_name":"Jerusalem","country_code":"IL","latitude":"31.76904","longitude":"35.21633","country_name":"Israel"},{"city_name":"Tel Aviv","country_code":"IL","latitude":"32.08088","longitude":"34.78057","country_name":"Israel"},{"city_name":"West Jerusalem","country_code":"IL","latitude":"31.78199","longitude":"35.21961","country_name":"Israel"},{"city_name":"Warangal","country_code":"IN","latitude":"18","longitude":"79.58333","country_name":"India"},{"city_name":"Visakhapatnam","country_code":"IN","latitude":"17.68009","longitude":"83.20161","country_name":"India"},{"city_name":"Vijayawada","country_code":"IN","latitude":"16.50745","longitude":"80.6466","country_name":"India"},{"city_name":"Varanasi","country_code":"IN","latitude":"25.31668","longitude":"83.01041","country_name":"India"},{"city_name":"Vadodara","country_code":"IN","latitude":"22.29941","longitude":"73.20812","country_name":"India"},{"city_name":"Ulhasnagar","country_code":"IN","latitude":"19.21667","longitude":"73.15","country_name":"India"},{"city_name":"Ujjain","country_code":"IN","latitude":"23.18239","longitude":"75.77643","country_name":"India"},{"city_name":"Udaipur","country_code":"IN","latitude":"24.58584","longitude":"73.71346","country_name":"India"},{"city_name":"Tumkūr","country_code":"IN","latitude":"13.34136","longitude":"77.1022","country_name":"India"},{"city_name":"Thiruvananthapuram","country_code":"IN","latitude":"8.4855","longitude":"76.94924","country_name":"India"},{"city_name":"Thrissur","country_code":"IN","latitude":"10.51667","longitude":"76.21667","country_name":"India"},{"city_name":"Tiruppur","country_code":"IN","latitude":"11.11541","longitude":"77.35456","country_name":"India"},{"city_name":"Tirunelveli","country_code":"IN","latitude":"8.72742","longitude":"77.6838","country_name":"India"},{"city_name":"Tiruchirappalli","country_code":"IN","latitude":"10.8155","longitude":"78.69651","country_name":"India"},{"city_name":"Thāne","country_code":"IN","latitude":"19.19704","longitude":"72.96355","country_name":"India"},{"city_name":"Teni","country_code":"IN","latitude":"10.01115","longitude":"77.47772","country_name":"India"},{"city_name":"Sūrat","country_code":"IN","latitude":"21.19594","longitude":"72.83023","country_name":"India"},{"city_name":"Srinagar","country_code":"IN","latitude":"34.08565","longitude":"74.80555","country_name":"India"},{"city_name":"Shyamnagar","country_code":"IN","latitude":"22.83333","longitude":"88.36667","country_name":"India"},{"city_name":"Solāpur","country_code":"IN","latitude":"17.67152","longitude":"75.91044","country_name":"India"},{"city_name":"Shimoga","country_code":"IN","latitude":"13.93157","longitude":"75.56791","country_name":"India"},{"city_name":"Siliguri","country_code":"IN","latitude":"26.71004","longitude":"88.42851","country_name":"India"},{"city_name":"Shāhjānpur","country_code":"IN","latitude":"27.88165","longitude":"79.90918","country_name":"India"},{"city_name":"Sāngli","country_code":"IN","latitude":"16.85438","longitude":"74.56417","country_name":"India"},{"city_name":"Salem","country_code":"IN","latitude":"11.65376","longitude":"78.15538","country_name":"India"},{"city_name":"Sahāranpur","country_code":"IN","latitude":"29.9679","longitude":"77.54522","country_name":"India"},{"city_name":"Rohtak","country_code":"IN","latitude":"28.89447","longitude":"76.58917","country_name":"India"},{"city_name":"Raurkela","country_code":"IN","latitude":"22.22496","longitude":"84.86414","country_name":"India"},{"city_name":"Ranchi","country_code":"IN","latitude":"23.34316","longitude":"85.3094","country_name":"India"},{"city_name":"Rāmgundam","country_code":"IN","latitude":"18.80084","longitude":"79.45206","country_name":"India"},{"city_name":"Rājkot","country_code":"IN","latitude":"22.29161","longitude":"70.79322","country_name":"India"},{"city_name":"Rājahmundry","country_code":"IN","latitude":"17.00517","longitude":"81.77784","country_name":"India"},{"city_name":"Raipur","country_code":"IN","latitude":"21.23333","longitude":"81.63333","country_name":"India"},{"city_name":"Kollam","country_code":"IN","latitude":"8.88113","longitude":"76.58469","country_name":"India"},{"city_name":"Pune","country_code":"IN","latitude":"18.51957","longitude":"73.85535","country_name":"India"},{"city_name":"Punāsa","country_code":"IN","latitude":"22.23507","longitude":"76.39335","country_name":"India"},{"city_name":"Pimpri","country_code":"IN","latitude":"18.62292","longitude":"73.80696","country_name":"India"},{"city_name":"Patna","country_code":"IN","latitude":"25.59408","longitude":"85.13563","country_name":"India"},{"city_name":"Patiāla","country_code":"IN","latitude":"30.33625","longitude":"76.3922","country_name":"India"},{"city_name":"Pānihāti","country_code":"IN","latitude":"22.69089","longitude":"88.37404","country_name":"India"},{"city_name":"Nowrangapur","country_code":"IN","latitude":"19.23114","longitude":"82.54826","country_name":"India"},{"city_name":"Nizāmābād","country_code":"IN","latitude":"18.67154","longitude":"78.0988","country_name":"India"},{"city_name":"New Delhi","country_code":"IN","latitude":"28.63576","longitude":"77.22445","country_name":"India"},{"city_name":"Nellore","country_code":"IN","latitude":"14.44992","longitude":"79.98697","country_name":"India"},{"city_name":"Nashik","country_code":"IN","latitude":"19.99727","longitude":"73.79096","country_name":"India"},{"city_name":"Narela","country_code":"IN","latitude":"28.85267","longitude":"77.09288","country_name":"India"},{"city_name":"Nanded","country_code":"IN","latitude":"19.16023","longitude":"77.31497","country_name":"India"},{"city_name":"Najafgarh","country_code":"IN","latitude":"28.60922","longitude":"76.97982","country_name":"India"},{"city_name":"Nagpur","country_code":"IN","latitude":"21.14631","longitude":"79.08491","country_name":"India"},{"city_name":"Mysore","country_code":"IN","latitude":"12.29791","longitude":"76.63925","country_name":"India"},{"city_name":"Muzaffarpur","country_code":"IN","latitude":"26.12259","longitude":"85.39055","country_name":"India"},{"city_name":"Muzaffarnagar","country_code":"IN","latitude":"29.47091","longitude":"77.70332","country_name":"India"},{"city_name":"Morādābād","country_code":"IN","latitude":"28.83893","longitude":"78.77684","country_name":"India"},{"city_name":"Meerut","country_code":"IN","latitude":"28.98002","longitude":"77.70636","country_name":"India"},{"city_name":"Mathura","country_code":"IN","latitude":"27.5035","longitude":"77.67215","country_name":"India"},{"city_name":"Mangalore","country_code":"IN","latitude":"12.91723","longitude":"74.85603","country_name":"India"},{"city_name":"Mālegaon","country_code":"IN","latitude":"20.54966","longitude":"74.53462","country_name":"India"},{"city_name":"Madurai","country_code":"IN","latitude":"9.919","longitude":"78.11953","country_name":"India"},{"city_name":"Chennai","country_code":"IN","latitude":"13.08784","longitude":"80.27847","country_name":"India"},{"city_name":"Ludhiāna","country_code":"IN","latitude":"30.91204","longitude":"75.85379","country_name":"India"},{"city_name":"Lucknow","country_code":"IN","latitude":"26.83928","longitude":"80.92313","country_name":"India"},{"city_name":"Latur","country_code":"IN","latitude":"18.39721","longitude":"76.56784","country_name":"India"},{"city_name":"Kurnool","country_code":"IN","latitude":"15.82887","longitude":"78.03602","country_name":"India"},{"city_name":"Kulti","country_code":"IN","latitude":"23.73166","longitude":"86.84372","country_name":"India"},{"city_name":"Kūkatpalli","country_code":"IN","latitude":"17.48486","longitude":"78.41376","country_name":"India"},{"city_name":"Kozhikode","country_code":"IN","latitude":"11.24802","longitude":"75.7804","country_name":"India"},{"city_name":"Kota","country_code":"IN","latitude":"25.18254","longitude":"75.83907","country_name":"India"},{"city_name":"Korba","country_code":"IN","latitude":"22.3458","longitude":"82.69633","country_name":"India"},{"city_name":"Kolhāpur","country_code":"IN","latitude":"16.69563","longitude":"74.23167","country_name":"India"},{"city_name":"Karol Bāgh","country_code":"IN","latitude":"28.65136","longitude":"77.19072","country_name":"India"},{"city_name":"Kanpur","country_code":"IN","latitude":"26.46523","longitude":"80.34975","country_name":"India"},{"city_name":"Kāmārhāti","country_code":"IN","latitude":"22.67111","longitude":"88.37472","country_name":"India"},{"city_name":"Kalyān","country_code":"IN","latitude":"19.2437","longitude":"73.13554","country_name":"India"},{"city_name":"Jalandhar","country_code":"IN","latitude":"31.32556","longitude":"75.57917","country_name":"India"},{"city_name":"Jodhpur","country_code":"IN","latitude":"26.26841","longitude":"73.00594","country_name":"India"},{"city_name":"Jhānsi","country_code":"IN","latitude":"25.45887","longitude":"78.57994","country_name":"India"},{"city_name":"Jamshedpur","country_code":"IN","latitude":"22.80278","longitude":"86.18545","country_name":"India"},{"city_name":"Jamnagar","country_code":"IN","latitude":"22.47292","longitude":"70.06673","country_name":"India"},{"city_name":"Jammu","country_code":"IN","latitude":"32.73569","longitude":"74.86911","country_name":"India"},{"city_name":"Jalgaon","country_code":"IN","latitude":"21.00292","longitude":"75.56602","country_name":"India"},{"city_name":"Jaipur","country_code":"IN","latitude":"26.91962","longitude":"75.78781","country_name":"India"},{"city_name":"Jabalpur","country_code":"IN","latitude":"23.16697","longitude":"79.95006","country_name":"India"},{"city_name":"Indore","country_code":"IN","latitude":"22.71792","longitude":"75.8333","country_name":"India"},{"city_name":"Hyderabad","country_code":"IN","latitude":"17.38405","longitude":"78.45636","country_name":"India"},{"city_name":"Hubli","country_code":"IN","latitude":"15.34776","longitude":"75.13378","country_name":"India"},{"city_name":"Hāora","country_code":"IN","latitude":"22.57688","longitude":"88.31857","country_name":"India"},{"city_name":"Gwalior","country_code":"IN","latitude":"26.22983","longitude":"78.17337","country_name":"India"},{"city_name":"Guntur","country_code":"IN","latitude":"16.29974","longitude":"80.45729","country_name":"India"},{"city_name":"Gulbarga","country_code":"IN","latitude":"17.33583","longitude":"76.83757","country_name":"India"},{"city_name":"Gorakhpur","country_code":"IN","latitude":"29.44768","longitude":"75.67206","country_name":"India"},{"city_name":"Gorakhpur","country_code":"IN","latitude":"26.76628","longitude":"83.36889","country_name":"India"},{"city_name":"Ghāziābād","country_code":"IN","latitude":"28.66535","longitude":"77.43915","country_name":"India"},{"city_name":"Gaya","country_code":"IN","latitude":"24.79686","longitude":"85.00385","country_name":"India"},{"city_name":"Guwahati","country_code":"IN","latitude":"26.1844","longitude":"91.7458","country_name":"India"},{"city_name":"Fīrozābād","country_code":"IN","latitude":"27.15092","longitude":"78.39781","country_name":"India"},{"city_name":"Faridabad","country_code":"IN","latitude":"28.41124","longitude":"77.31316","country_name":"India"},{"city_name":"Durgapur","country_code":"IN","latitude":"23.51583","longitude":"87.30801","country_name":"India"},{"city_name":"Dombivli","country_code":"IN","latitude":"19.21667","longitude":"73.08333","country_name":"India"},{"city_name":"Dhūlia","country_code":"IN","latitude":"20.9013","longitude":"74.77737","country_name":"India"},{"city_name":"Delhi","country_code":"IN","latitude":"28.65195","longitude":"77.23149","country_name":"India"},{"city_name":"Dehra Dūn","country_code":"IN","latitude":"30.32443","longitude":"78.03392","country_name":"India"},{"city_name":"Davangere","country_code":"IN","latitude":"14.46693","longitude":"75.92694","country_name":"India"},{"city_name":"Cuttack","country_code":"IN","latitude":"20.46497","longitude":"85.87927","country_name":"India"},{"city_name":"Coimbatore","country_code":"IN","latitude":"11.00555","longitude":"76.96612","country_name":"India"},{"city_name":"Cochin","country_code":"IN","latitude":"9.93988","longitude":"76.26022","country_name":"India"},{"city_name":"Chānda","country_code":"IN","latitude":"19.95076","longitude":"79.29523","country_name":"India"},{"city_name":"Chandigarh","country_code":"IN","latitude":"30.73629","longitude":"76.7884","country_name":"India"},{"city_name":"Kolkata","country_code":"IN","latitude":"22.56263","longitude":"88.36304","country_name":"India"},{"city_name":"Brahmapur","country_code":"IN","latitude":"19.31151","longitude":"84.7929","country_name":"India"},{"city_name":"Borivli","country_code":"IN","latitude":"19.23496","longitude":"72.85976","country_name":"India"},{"city_name":"Mumbai","country_code":"IN","latitude":"19.07283","longitude":"72.88261","country_name":"India"},{"city_name":"Bokāro","country_code":"IN","latitude":"23.78707","longitude":"85.95644","country_name":"India"},{"city_name":"Bilimora","country_code":"IN","latitude":"20.76957","longitude":"72.96134","country_name":"India"},{"city_name":"Bīkaner","country_code":"IN","latitude":"28.01762","longitude":"73.31495","country_name":"India"},{"city_name":"Bhubaneshwar","country_code":"IN","latitude":"20.27241","longitude":"85.83385","country_name":"India"},{"city_name":"Bhopal","country_code":"IN","latitude":"23.25469","longitude":"77.40289","country_name":"India"},{"city_name":"Bhiwandi","country_code":"IN","latitude":"19.30023","longitude":"73.05881","country_name":"India"},{"city_name":"Bhīlwāra","country_code":"IN","latitude":"25.34707","longitude":"74.64081","country_name":"India"},{"city_name":"Bhilai","country_code":"IN","latitude":"21.20919","longitude":"81.4285","country_name":"India"},{"city_name":"Bhayandar","country_code":"IN","latitude":"19.30157","longitude":"72.85107","country_name":"India"},{"city_name":"Bhavnagar","country_code":"IN","latitude":"21.76287","longitude":"72.15331","country_name":"India"},{"city_name":"Bhātpāra","country_code":"IN","latitude":"22.86643","longitude":"88.40113","country_name":"India"},{"city_name":"Bhāgalpur","country_code":"IN","latitude":"25.24446","longitude":"86.97183","country_name":"India"},{"city_name":"Bellary","country_code":"IN","latitude":"15.14205","longitude":"76.92398","country_name":"India"},{"city_name":"Belgaum","country_code":"IN","latitude":"15.85212","longitude":"74.50447","country_name":"India"},{"city_name":"Bareilly","country_code":"IN","latitude":"28.36678","longitude":"79.43167","country_name":"India"},{"city_name":"Barddhamān","country_code":"IN","latitude":"23.25572","longitude":"87.85691","country_name":"India"},{"city_name":"Bengaluru","country_code":"IN","latitude":"12.97194","longitude":"77.59369","country_name":"India"},{"city_name":"Aurangabad","country_code":"IN","latitude":"19.87757","longitude":"75.34226","country_name":"India"},{"city_name":"Āsansol","country_code":"IN","latitude":"23.68333","longitude":"86.98333","country_name":"India"},{"city_name":"Amritsar","country_code":"IN","latitude":"31.62234","longitude":"74.87534","country_name":"India"},{"city_name":"Amrāvati","country_code":"IN","latitude":"20.93333","longitude":"77.75","country_name":"India"},{"city_name":"Ambattūr","country_code":"IN","latitude":"13.09818","longitude":"80.16152","country_name":"India"},{"city_name":"Allahābād","country_code":"IN","latitude":"25.44478","longitude":"81.84322","country_name":"India"},{"city_name":"Alīgarh","country_code":"IN","latitude":"27.88145","longitude":"78.07464","country_name":"India"},{"city_name":"Akola","country_code":"IN","latitude":"20.70957","longitude":"76.9981","country_name":"India"},{"city_name":"Ajmer","country_code":"IN","latitude":"26.4521","longitude":"74.63867","country_name":"India"},{"city_name":"Ahmadnagar","country_code":"IN","latitude":"19.09457","longitude":"74.73843","country_name":"India"},{"city_name":"Ahmedabad","country_code":"IN","latitude":"23.02579","longitude":"72.58727","country_name":"India"},{"city_name":"Agra","country_code":"IN","latitude":"27.18333","longitude":"78.01667","country_name":"India"},{"city_name":"Nangi","country_code":"IN","latitude":"22.50833","longitude":"88.21528","country_name":"India"},{"city_name":"Navi Mumbai","country_code":"IN","latitude":"19.03681","longitude":"73.01582","country_name":"India"},{"city_name":"Shivaji Nagar","country_code":"IN","latitude":"18.53017","longitude":"73.85263","country_name":"India"},{"city_name":"Thoothukudi","country_code":"IN","latitude":"8.76735","longitude":"78.13425","country_name":"India"},{"city_name":"Rohini","country_code":"IN","latitude":"28.74322","longitude":"77.06778","country_name":"India"},{"city_name":"Kirkuk","country_code":"IQ","latitude":"35.46806","longitude":"44.39222","country_name":"Iraq"},{"city_name":"Karbala","country_code":"IQ","latitude":"32.61603","longitude":"44.02488","country_name":"Iraq"},{"city_name":"Erbil","country_code":"IQ","latitude":"36.18333","longitude":"44.01193","country_name":"Iraq"},{"city_name":"Baghdad","country_code":"IQ","latitude":"33.34058","longitude":"44.40088","country_name":"Iraq"},{"city_name":"As Sulaymānīyah","country_code":"IQ","latitude":"35.56496","longitude":"45.4329","country_name":"Iraq"},{"city_name":"Nasiriyah","country_code":"IQ","latitude":"31.05799","longitude":"46.25726","country_name":"Iraq"},{"city_name":"Najaf","country_code":"IQ","latitude":"32.02594","longitude":"44.34625","country_name":"Iraq"},{"city_name":"Al Mawşil al Jadīdah","country_code":"IQ","latitude":"36.33271","longitude":"43.10555","country_name":"Iraq"},{"city_name":"Mosul","country_code":"IQ","latitude":"36.335","longitude":"43.11889","country_name":"Iraq"},{"city_name":"Al Kūt","country_code":"IQ","latitude":"32.5128","longitude":"45.81817","country_name":"Iraq"},{"city_name":"Basrah","country_code":"IQ","latitude":"30.50852","longitude":"47.7804","country_name":"Iraq"},{"city_name":"Al ‘Amārah","country_code":"IQ","latitude":"31.83561","longitude":"47.14483","country_name":"Iraq"},{"city_name":"Ad Dīwānīyah","country_code":"IQ","latitude":"31.99289","longitude":"44.92552","country_name":"Iraq"},{"city_name":"Abū Ghurayb","country_code":"IQ","latitude":"33.30563","longitude":"44.18477","country_name":"Iraq"},{"city_name":"Al Başrah al Qadīmah","country_code":"IQ","latitude":"30.50316","longitude":"47.81507","country_name":"Iraq"},{"city_name":"Āzādshahr","country_code":"IR","latitude":"34.79049","longitude":"48.57011","country_name":"Iran"},{"city_name":"Kahrīz","country_code":"IR","latitude":"34.3838","longitude":"47.0553","country_name":"Iran"},{"city_name":"Zanjān","country_code":"IR","latitude":"36.67642","longitude":"48.49628","country_name":"Iran"},{"city_name":"Yazd","country_code":"IR","latitude":"31.89722","longitude":"54.3675","country_name":"Iran"},{"city_name":"Tehran","country_code":"IR","latitude":"35.69439","longitude":"51.42151","country_name":"Iran"},{"city_name":"Tabriz","country_code":"IR","latitude":"38.08","longitude":"46.2919","country_name":"Iran"},{"city_name":"Shiraz","country_code":"IR","latitude":"29.61031","longitude":"52.53113","country_name":"Iran"},{"city_name":"Sanandaj","country_code":"IR","latitude":"35.31495","longitude":"46.99883","country_name":"Iran"},{"city_name":"Rasht","country_code":"IR","latitude":"37.27611","longitude":"49.58862","country_name":"Iran"},{"city_name":"Qom","country_code":"IR","latitude":"34.6401","longitude":"50.8764","country_name":"Iran"},{"city_name":"Qazvin","country_code":"IR","latitude":"36.26877","longitude":"50.0041","country_name":"Iran"},{"city_name":"Orūmīyeh","country_code":"IR","latitude":"37.55274","longitude":"45.07605","country_name":"Iran"},{"city_name":"Mashhad","country_code":"IR","latitude":"36.31559","longitude":"59.56796","country_name":"Iran"},{"city_name":"Khorramshahr","country_code":"IR","latitude":"30.44079","longitude":"48.18428","country_name":"Iran"},{"city_name":"Khorramabad","country_code":"IR","latitude":"33.48778","longitude":"48.35583","country_name":"Iran"},{"city_name":"Kermanshah","country_code":"IR","latitude":"34.31417","longitude":"47.065","country_name":"Iran"},{"city_name":"Kerman","country_code":"IR","latitude":"30.28321","longitude":"57.07879","country_name":"Iran"},{"city_name":"Karaj","country_code":"IR","latitude":"35.83266","longitude":"50.99155","country_name":"Iran"},{"city_name":"Hamadān","country_code":"IR","latitude":"34.79922","longitude":"48.51456","country_name":"Iran"},{"city_name":"Bandar Abbas","country_code":"IR","latitude":"27.1865","longitude":"56.2808","country_name":"Iran"},{"city_name":"Ardabīl","country_code":"IR","latitude":"38.2498","longitude":"48.2933","country_name":"Iran"},{"city_name":"Arāk","country_code":"IR","latitude":"34.09493","longitude":"49.69809","country_name":"Iran"},{"city_name":"Ahvaz","country_code":"IR","latitude":"31.31901","longitude":"48.6842","country_name":"Iran"},{"city_name":"Abadan","country_code":"IR","latitude":"30.3392","longitude":"48.3043","country_name":"Iran"},{"city_name":"Isfahan","country_code":"IR","latitude":"32.65246","longitude":"51.67462","country_name":"Iran"},{"city_name":"Zahedan","country_code":"IR","latitude":"29.4963","longitude":"60.8629","country_name":"Iran"},{"city_name":"Pasragad Branch","country_code":"IR","latitude":"34.77772","longitude":"48.47168","country_name":"Iran"},{"city_name":"Palermo","country_code":"IT","latitude":"38.13205","longitude":"13.33561","country_name":"Italy"},{"city_name":"Turin","country_code":"IT","latitude":"45.07049","longitude":"7.68682","country_name":"Italy"},{"city_name":"Rome","country_code":"IT","latitude":"41.89193","longitude":"12.51133","country_name":"Italy"},{"city_name":"Naples","country_code":"IT","latitude":"40.85216","longitude":"14.26811","country_name":"Italy"},{"city_name":"Milan","country_code":"IT","latitude":"45.46427","longitude":"9.18951","country_name":"Italy"},{"city_name":"Genoa","country_code":"IT","latitude":"44.40478","longitude":"8.94439","country_name":"Italy"},{"city_name":"Florence","country_code":"IT","latitude":"43.77925","longitude":"11.24626","country_name":"Italy"},{"city_name":"Bologna","country_code":"IT","latitude":"44.49381","longitude":"11.33875","country_name":"Italy"},{"city_name":"New Kingston","country_code":"JM","latitude":"18.00747","longitude":"-76.78319","country_name":"Jamaica"},{"city_name":"Kingston","country_code":"JM","latitude":"17.99702","longitude":"-76.79358","country_name":"Jamaica"},{"city_name":"Irbid","country_code":"JO","latitude":"32.55556","longitude":"35.85","country_name":"Jordan"},{"city_name":"Zarqa","country_code":"JO","latitude":"32.07275","longitude":"36.08796","country_name":"Jordan"},{"city_name":"Amman","country_code":"JO","latitude":"31.95522","longitude":"35.94503","country_name":"Jordan"},{"city_name":"Yono","country_code":"JP","latitude":"35.88333","longitude":"139.63333","country_name":"Japan"},{"city_name":"Yokosuka","country_code":"JP","latitude":"35.28361","longitude":"139.66722","country_name":"Japan"},{"city_name":"Yokohama","country_code":"JP","latitude":"35.43333","longitude":"139.65","country_name":"Japan"},{"city_name":"Utsunomiya","country_code":"JP","latitude":"36.56667","longitude":"139.88333","country_name":"Japan"},{"city_name":"Toyota","country_code":"JP","latitude":"35.08333","longitude":"137.15","country_name":"Japan"},{"city_name":"Toyonaka","country_code":"JP","latitude":"34.78244","longitude":"135.46932","country_name":"Japan"},{"city_name":"Toyohashi","country_code":"JP","latitude":"34.76667","longitude":"137.38333","country_name":"Japan"},{"city_name":"Toyama","country_code":"JP","latitude":"36.7","longitude":"137.21667","country_name":"Japan"},{"city_name":"Tokyo","country_code":"JP","latitude":"35.6895","longitude":"139.69171","country_name":"Japan"},{"city_name":"Tokorozawa","country_code":"JP","latitude":"35.79916","longitude":"139.46903","country_name":"Japan"},{"city_name":"Takatsuki","country_code":"JP","latitude":"34.84833","longitude":"135.61678","country_name":"Japan"},{"city_name":"Takamatsu","country_code":"JP","latitude":"34.33333","longitude":"134.05","country_name":"Japan"},{"city_name":"Suita","country_code":"JP","latitude":"34.76143","longitude":"135.51567","country_name":"Japan"},{"city_name":"Shizuoka","country_code":"JP","latitude":"34.98333","longitude":"138.38333","country_name":"Japan"},{"city_name":"Minato","country_code":"JP","latitude":"34.2152","longitude":"135.1501","country_name":"Japan"},{"city_name":"Sakai","country_code":"JP","latitude":"34.58333","longitude":"135.46667","country_name":"Japan"},{"city_name":"Osaka","country_code":"JP","latitude":"34.69374","longitude":"135.50218","country_name":"Japan"},{"city_name":"Okazaki","country_code":"JP","latitude":"34.95","longitude":"137.16667","country_name":"Japan"},{"city_name":"Okayama","country_code":"JP","latitude":"34.65","longitude":"133.93333","country_name":"Japan"},{"city_name":"Ōita","country_code":"JP","latitude":"33.23333","longitude":"131.6","country_name":"Japan"},{"city_name":"Nishinomiya-hama","country_code":"JP","latitude":"34.71562","longitude":"135.33199","country_name":"Japan"},{"city_name":"Niigata","country_code":"JP","latitude":"37.88637","longitude":"139.00589","country_name":"Japan"},{"city_name":"Nara-shi","country_code":"JP","latitude":"34.68505","longitude":"135.80485","country_name":"Japan"},{"city_name":"Naha","country_code":"JP","latitude":"26.21667","longitude":"127.68333","country_name":"Japan"},{"city_name":"Nagoya","country_code":"JP","latitude":"35.18147","longitude":"136.90641","country_name":"Japan"},{"city_name":"Nagasaki","country_code":"JP","latitude":"32.75","longitude":"129.88333","country_name":"Japan"},{"city_name":"Nagano","country_code":"JP","latitude":"36.65","longitude":"138.18333","country_name":"Japan"},{"city_name":"Miyazaki","country_code":"JP","latitude":"31.91667","longitude":"131.41667","country_name":"Japan"},{"city_name":"Matsudo","country_code":"JP","latitude":"35.77995","longitude":"139.90144","country_name":"Japan"},{"city_name":"Machida","country_code":"JP","latitude":"35.54028","longitude":"139.45083","country_name":"Japan"},{"city_name":"Kyoto","country_code":"JP","latitude":"35.02107","longitude":"135.75385","country_name":"Japan"},{"city_name":"Kurashiki","country_code":"JP","latitude":"34.58333","longitude":"133.76667","country_name":"Japan"},{"city_name":"Kumamoto","country_code":"JP","latitude":"32.80589","longitude":"130.69181","country_name":"Japan"},{"city_name":"Koshigaya","country_code":"JP","latitude":"35.89035","longitude":"139.78916","country_name":"Japan"},{"city_name":"Kochi","country_code":"JP","latitude":"33.55","longitude":"133.53333","country_name":"Japan"},{"city_name":"Kobe","country_code":"JP","latitude":"34.6913","longitude":"135.183","country_name":"Japan"},{"city_name":"Kitakyushu","country_code":"JP","latitude":"33.85181","longitude":"130.85034","country_name":"Japan"},{"city_name":"Kawasaki","country_code":"JP","latitude":"35.52056","longitude":"139.71722","country_name":"Japan"},{"city_name":"Kawaguchi","country_code":"JP","latitude":"35.80521","longitude":"139.71072","country_name":"Japan"},{"city_name":"Kawagoe","country_code":"JP","latitude":"35.90861","longitude":"139.48528","country_name":"Japan"},{"city_name":"Kashiwa","country_code":"JP","latitude":"35.86224","longitude":"139.97732","country_name":"Japan"},{"city_name":"Kanazawa","country_code":"JP","latitude":"36.6","longitude":"136.61667","country_name":"Japan"},{"city_name":"Kagoshima","country_code":"JP","latitude":"31.56667","longitude":"130.55","country_name":"Japan"},{"city_name":"Hiroshima","country_code":"JP","latitude":"34.4","longitude":"132.45","country_name":"Japan"},{"city_name":"Hirakata","country_code":"JP","latitude":"34.81352","longitude":"135.64914","country_name":"Japan"},{"city_name":"Himeji","country_code":"JP","latitude":"34.81667","longitude":"134.7","country_name":"Japan"},{"city_name":"Hamamatsu","country_code":"JP","latitude":"34.7","longitude":"137.73333","country_name":"Japan"},{"city_name":"Hachiōji","country_code":"JP","latitude":"35.65583","longitude":"139.32389","country_name":"Japan"},{"city_name":"Gifu-shi","country_code":"JP","latitude":"35.42291","longitude":"136.76039","country_name":"Japan"},{"city_name":"Honchō","country_code":"JP","latitude":"35.70129","longitude":"139.98648","country_name":"Japan"},{"city_name":"Fukuyama","country_code":"JP","latitude":"34.48333","longitude":"133.36667","country_name":"Japan"},{"city_name":"Fukuoka","country_code":"JP","latitude":"33.6","longitude":"130.41667","country_name":"Japan"},{"city_name":"Fujisawa","country_code":"JP","latitude":"35.34926","longitude":"139.47666","country_name":"Japan"},{"city_name":"Amagasaki","country_code":"JP","latitude":"34.71667","longitude":"135.41667","country_name":"Japan"},{"city_name":"Wakayama","country_code":"JP","latitude":"34.23333","longitude":"135.16667","country_name":"Japan"},{"city_name":"Matsuyama","country_code":"JP","latitude":"33.83916","longitude":"132.76574","country_name":"Japan"},{"city_name":"Sendai","country_code":"JP","latitude":"38.26667","longitude":"140.86667","country_name":"Japan"},{"city_name":"Kōriyama","country_code":"JP","latitude":"37.4","longitude":"140.38333","country_name":"Japan"},{"city_name":"Iwaki","country_code":"JP","latitude":"37.05","longitude":"140.88333","country_name":"Japan"},{"city_name":"Chiba","country_code":"JP","latitude":"35.6","longitude":"140.11667","country_name":"Japan"},{"city_name":"Akita","country_code":"JP","latitude":"39.71667","longitude":"140.11667","country_name":"Japan"},{"city_name":"Sapporo","country_code":"JP","latitude":"43.06667","longitude":"141.35","country_name":"Japan"},{"city_name":"Asahikawa","country_code":"JP","latitude":"43.77063","longitude":"142.36489","country_name":"Japan"},{"city_name":"Saitama","country_code":"JP","latitude":"35.90807","longitude":"139.65657","country_name":"Japan"},{"city_name":"Nairobi","country_code":"KE","latitude":"-1.28333","longitude":"36.81667","country_name":"Kenya"},{"city_name":"Mombasa","country_code":"KE","latitude":"-4.05466","longitude":"39.66359","country_name":"Kenya"},{"city_name":"Bishkek","country_code":"KG","latitude":"42.87","longitude":"74.59","country_name":"Kyrgyzstan"},{"city_name":"Phnom Penh","country_code":"KH","latitude":"11.56245","longitude":"104.91601","country_name":"Cambodia"},{"city_name":"Takeo","country_code":"KH","latitude":"10.99081","longitude":"104.78498","country_name":"Cambodia"},{"city_name":"Wŏnsan","country_code":"KP","latitude":"39.15278","longitude":"127.44361","country_name":"North Korea"},{"city_name":"Sunch’ŏn","country_code":"KP","latitude":"39.43167","longitude":"125.93278","country_name":"North Korea"},{"city_name":"Sariwŏn","country_code":"KP","latitude":"38.50722","longitude":"125.75583","country_name":"North Korea"},{"city_name":"Pyongyang","country_code":"KP","latitude":"39.03385","longitude":"125.75432","country_name":"North Korea"},{"city_name":"Namp’o","country_code":"KP","latitude":"38.7375","longitude":"125.40778","country_name":"North Korea"},{"city_name":"Kaesŏng","country_code":"KP","latitude":"37.97083","longitude":"126.55444","country_name":"North Korea"},{"city_name":"Hŭngnam","country_code":"KP","latitude":"39.83167","longitude":"127.61861","country_name":"North Korea"},{"city_name":"Hamhŭng","country_code":"KP","latitude":"39.91833","longitude":"127.53639","country_name":"North Korea"},{"city_name":"Chongjin","country_code":"KP","latitude":"41.79556","longitude":"129.77583","country_name":"North Korea"},{"city_name":"Ulsan","country_code":"KR","latitude":"35.53722","longitude":"129.31667","country_name":"South Korea"},{"city_name":"Uijeongbu-si","country_code":"KR","latitude":"37.7415","longitude":"127.0474","country_name":"South Korea"},{"city_name":"Daejeon","country_code":"KR","latitude":"36.34913","longitude":"127.38493","country_name":"South Korea"},{"city_name":"Daegu","country_code":"KR","latitude":"35.87028","longitude":"128.59111","country_name":"South Korea"},{"city_name":"Suwon","country_code":"KR","latitude":"37.29111","longitude":"127.00889","country_name":"South Korea"},{"city_name":"Seoul","country_code":"KR","latitude":"37.566","longitude":"126.9784","country_name":"South Korea"},{"city_name":"Busan","country_code":"KR","latitude":"35.10168","longitude":"129.03004","country_name":"South Korea"},{"city_name":"Bucheon-si","country_code":"KR","latitude":"37.49889","longitude":"126.78306","country_name":"South Korea"},{"city_name":"Pohang","country_code":"KR","latitude":"36.02917","longitude":"129.36481","country_name":"South Korea"},{"city_name":"Masan","country_code":"KR","latitude":"35.12725","longitude":"126.83149","country_name":"South Korea"},{"city_name":"Gwangju","country_code":"KR","latitude":"35.15472","longitude":"126.91556","country_name":"South Korea"},{"city_name":"Goyang-si","country_code":"KR","latitude":"37.65639","longitude":"126.835","country_name":"South Korea"},{"city_name":"Kimhae","country_code":"KR","latitude":"35.23417","longitude":"128.88111","country_name":"South Korea"},{"city_name":"Incheon","country_code":"KR","latitude":"37.45646","longitude":"126.70515","country_name":"South Korea"},{"city_name":"Hwaseong-si","country_code":"KR","latitude":"37.20682","longitude":"126.8169","country_name":"South Korea"},{"city_name":"Jeonju","country_code":"KR","latitude":"35.82194","longitude":"127.14889","country_name":"South Korea"},{"city_name":"Cheongju-si","country_code":"KR","latitude":"36.63722","longitude":"127.48972","country_name":"South Korea"},{"city_name":"Cheonan","country_code":"KR","latitude":"36.8065","longitude":"127.1522","country_name":"South Korea"},{"city_name":"Chinju","country_code":"KR","latitude":"35.19278","longitude":"128.08472","country_name":"South Korea"},{"city_name":"Jeju City","country_code":"KR","latitude":"33.50972","longitude":"126.52194","country_name":"South Korea"},{"city_name":"Changwon","country_code":"KR","latitude":"35.22806","longitude":"128.68111","country_name":"South Korea"},{"city_name":"Anyang-si","country_code":"KR","latitude":"37.3925","longitude":"126.92694","country_name":"South Korea"},{"city_name":"Ansan-si","country_code":"KR","latitude":"37.32361","longitude":"126.82194","country_name":"South Korea"},{"city_name":"Seongnam-si","country_code":"KR","latitude":"37.43861","longitude":"127.13778","country_name":"South Korea"},{"city_name":"Kwangmyŏng","country_code":"KR","latitude":"37.47722","longitude":"126.86639","country_name":"South Korea"},{"city_name":"Al Aḩmadī","country_code":"KW","latitude":"29.07694","longitude":"48.08389","country_name":"Kuwait"},{"city_name":"Karagandy","country_code":"KZ","latitude":"49.80187","longitude":"73.10211","country_name":"Kazakhstan"},{"city_name":"Taraz","country_code":"KZ","latitude":"42.9","longitude":"71.36667","country_name":"Kazakhstan"},{"city_name":"Shymkent","country_code":"KZ","latitude":"42.3","longitude":"69.6","country_name":"Kazakhstan"},{"city_name":"Pavlodar","country_code":"KZ","latitude":"52.28333","longitude":"76.96667","country_name":"Kazakhstan"},{"city_name":"Ust-Kamenogorsk","country_code":"KZ","latitude":"49.97143","longitude":"82.60586","country_name":"Kazakhstan"},{"city_name":"Nur-Sultan","country_code":"KZ","latitude":"51.1801","longitude":"71.44598","country_name":"Kazakhstan"},{"city_name":"Almaty","country_code":"KZ","latitude":"43.25667","longitude":"76.92861","country_name":"Kazakhstan"},{"city_name":"Ra’s Bayrūt","country_code":"LB","latitude":"33.9","longitude":"35.48333","country_name":"Lebanon"},{"city_name":"Beirut","country_code":"LB","latitude":"33.89332","longitude":"35.50157","country_name":"Lebanon"},{"city_name":"Colombo","country_code":"LK","latitude":"6.93548","longitude":"79.84868","country_name":"Sri Lanka"},{"city_name":"Monrovia","country_code":"LR","latitude":"6.30054","longitude":"-10.7969","country_name":"Liberia"},{"city_name":"Vilnius","country_code":"LT","latitude":"54.68916","longitude":"25.2798","country_name":"Lithuania"},{"city_name":"Kaunas","country_code":"LT","latitude":"54.90272","longitude":"23.90961","country_name":"Lithuania"},{"city_name":"Riga","country_code":"LV","latitude":"56.946","longitude":"24.10589","country_name":"Latvia"},{"city_name":"Benghazi","country_code":"LY","latitude":"32.11486","longitude":"20.06859","country_name":"Libya"},{"city_name":"Tripoli","country_code":"LY","latitude":"32.88743","longitude":"13.18733","country_name":"Libya"},{"city_name":"Mişrātah","country_code":"LY","latitude":"32.37535","longitude":"15.09254","country_name":"Libya"},{"city_name":"Tétouan","country_code":"MA","latitude":"35.57845","longitude":"-5.36837","country_name":"Morocco"},{"city_name":"Temara","country_code":"MA","latitude":"33.92866","longitude":"-6.90656","country_name":"Morocco"},{"city_name":"Tangier","country_code":"MA","latitude":"35.76727","longitude":"-5.79975","country_name":"Morocco"},{"city_name":"Sale","country_code":"MA","latitude":"34.0531","longitude":"-6.79846","country_name":"Morocco"},{"city_name":"Rabat","country_code":"MA","latitude":"34.01325","longitude":"-6.83255","country_name":"Morocco"},{"city_name":"Oujda-Angad","country_code":"MA","latitude":"34.68139","longitude":"-1.90858","country_name":"Morocco"},