[{"city_name":"Andorra la Vella","country_code":"AD","latitude":"42.50779","longitude":"1.52109","country_name":"Andorra"},{"city_name":"Umm Al Quwain City","country_code":"AE","latitude":"25.56473","longitude":"55.55517","country_name":"United Arab Emirates"},{"city_name":"Ras Al Khaimah City","country_code":"AE","latitude":"25.78953","longitude":"55.9432","country_name":"United Arab Emirates"},{"city_name":"Zayed City","country_code":"AE","latitude":"23.65416","longitude":"53.70522","country_name":"United Arab Emirates"},{"city_name":"Khawr Fakkān","country_code":"AE","latitude":"25.33132","longitude":"56.34199","country_name":"United Arab Emirates"},{"city_name":"Dubai","country_code":"AE","latitude":"25.07725","longitude":"55.30927","country_name":"United Arab Emirates"},{"city_name":"Dibba Al-Fujairah","country_code":"AE","latitude":"25.59246","longitude":"56.26176","country_name":"United Arab Emirates"},{"city_name":"Dibba Al-Hisn","country_code":"AE","latitude":"25.61955","longitude":"56.27291","country_name":"United Arab Emirates"},{"city_name":"Sharjah","country_code":"AE","latitude":"25.33737","longitude":"55.41206","country_name":"United Arab Emirates"},{"city_name":"Al Fujairah City","country_code":"AE","latitude":"25.11641","longitude":"56.34141","country_name":"United Arab Emirates"},{"city_name":"Al Ain City","country_code":"AE","latitude":"24.19167","longitude":"55.76056","country_name":"United Arab Emirates"},{"city_name":"Ajman City","country_code":"AE","latitude":"25.40177","longitude":"55.47878","country_name":"United Arab Emirates"},{"city_name":"Adh Dhayd","country_code":"AE","latitude":"25.28812","longitude":"55.88157","country_name":"United Arab Emirates"},{"city_name":"Abu Dhabi","country_code":"AE","latitude":"24.45118","longitude":"54.39696","country_name":"United Arab Emirates"},{"city_name":"Khalifah A City","country_code":"AE","latitude":"24.42588","longitude":"54.605","country_name":"United Arab Emirates"},{"city_name":"Bani Yas City","country_code":"AE","latitude":"24.30978","longitude":"54.62944","country_name":"United Arab Emirates"},{"city_name":"Musaffah","country_code":"AE","latitude":"24.35893","longitude":"54.48267","country_name":"United Arab Emirates"},{"city_name":"Al Shamkhah City","country_code":"AE","latitude":"24.39268","longitude":"54.70779","country_name":"United Arab Emirates"},{"city_name":"Reef Al Fujairah City","country_code":"AE","latitude":"25.14479","longitude":"56.24764","country_name":"United Arab Emirates"},{"city_name":"Zaranj","country_code":"AF","latitude":"30.95962","longitude":"61.86037","country_name":"Afghanistan"},{"city_name":"Bāzār-e Yakāwlang","country_code":"AF","latitude":"34.73525","longitude":"66.97379","country_name":"Afghanistan"},{"city_name":"Taloqan","country_code":"AF","latitude":"36.73605","longitude":"69.53451","country_name":"Afghanistan"},{"city_name":"Shīnḏanḏ","country_code":"AF","latitude":"33.30294","longitude":"62.1474","country_name":"Afghanistan"},{"city_name":"Shibirghān","country_code":"AF","latitude":"36.66757","longitude":"65.7529","country_name":"Afghanistan"},{"city_name":"Sar-e Pul","country_code":"AF","latitude":"36.21544","longitude":"65.93249","country_name":"Afghanistan"},{"city_name":"Aībak","country_code":"AF","latitude":"36.26468","longitude":"68.01551","country_name":"Afghanistan"},{"city_name":"Rustāq","country_code":"AF","latitude":"37.12604","longitude":"69.83045","country_name":"Afghanistan"},{"city_name":"Qarāwul","country_code":"AF","latitude":"37.21959","longitude":"68.7802","country_name":"Afghanistan"},{"city_name":"Pul-e Khumrī","country_code":"AF","latitude":"35.94458","longitude":"68.71512","country_name":"Afghanistan"},{"city_name":"Paghmān","country_code":"AF","latitude":"34.58787","longitude":"68.95091","country_name":"Afghanistan"},{"city_name":"Nahrīn","country_code":"AF","latitude":"36.0649","longitude":"69.13343","country_name":"Afghanistan"},{"city_name":"Maymana","country_code":"AF","latitude":"35.92139","longitude":"64.78361","country_name":"Afghanistan"},{"city_name":"Mazār-e Sharīf","country_code":"AF","latitude":"36.70904","longitude":"67.11087","country_name":"Afghanistan"},{"city_name":"Lashkar Gāh","country_code":"AF","latitude":"31.59382","longitude":"64.37161","country_name":"Afghanistan"},{"city_name":"Kunduz","country_code":"AF","latitude":"36.72895","longitude":"68.857","country_name":"Afghanistan"},{"city_name":"Khōst","country_code":"AF","latitude":"33.33951","longitude":"69.92041","country_name":"Afghanistan"},{"city_name":"Khulm","country_code":"AF","latitude":"36.69736","longitude":"67.69826","country_name":"Afghanistan"},{"city_name":"Khanabad","country_code":"AF","latitude":"36.6825","longitude":"69.11556","country_name":"Afghanistan"},{"city_name":"Kandahār","country_code":"AF","latitude":"31.61332","longitude":"65.71013","country_name":"Afghanistan"},{"city_name":"Kabul","country_code":"AF","latitude":"34.52813","longitude":"69.17233","country_name":"Afghanistan"},{"city_name":"Jalālābād","country_code":"AF","latitude":"34.42647","longitude":"70.45153","country_name":"Afghanistan"},{"city_name":"Herāt","country_code":"AF","latitude":"34.34817","longitude":"62.19967","country_name":"Afghanistan"},{"city_name":"Ghormach","country_code":"AF","latitude":"35.73062","longitude":"63.78264","country_name":"Afghanistan"},{"city_name":"Ghazni","country_code":"AF","latitude":"33.55391","longitude":"68.42096","country_name":"Afghanistan"},{"city_name":"Gereshk","country_code":"AF","latitude":"31.82089","longitude":"64.57005","country_name":"Afghanistan"},{"city_name":"Gardez","country_code":"AF","latitude":"33.59744","longitude":"69.22592","country_name":"Afghanistan"},{"city_name":"Fayzabad","country_code":"AF","latitude":"37.11664","longitude":"70.58002","country_name":"Afghanistan"},{"city_name":"Farah","country_code":"AF","latitude":"32.37451","longitude":"62.11638","country_name":"Afghanistan"},{"city_name":"Charikar","country_code":"AF","latitude":"35.01361","longitude":"69.17139","country_name":"Afghanistan"},{"city_name":"Baraki Barak","country_code":"AF","latitude":"33.96744","longitude":"68.9492","country_name":"Afghanistan"},{"city_name":"Bāmyān","country_code":"AF","latitude":"34.82156","longitude":"67.82734","country_name":"Afghanistan"},{"city_name":"Balkh","country_code":"AF","latitude":"36.75635","longitude":"66.8972","country_name":"Afghanistan"},{"city_name":"Baghlān","country_code":"AF","latitude":"36.13068","longitude":"68.70829","country_name":"Afghanistan"},{"city_name":"Asadābād","country_code":"AF","latitude":"34.87311","longitude":"71.14697","country_name":"Afghanistan"},{"city_name":"Andkhōy","country_code":"AF","latitude":"36.95293","longitude":"65.12376","country_name":"Afghanistan"},{"city_name":"Bāzārak","country_code":"AF","latitude":"35.31292","longitude":"69.51519","country_name":"Afghanistan"},{"city_name":"Saint John’s","country_code":"AG","latitude":"17.12096","longitude":"-61.84329","country_name":"Antigua and Barbuda"},{"city_name":"Pogradec","country_code":"AL","latitude":"40.9025","longitude":"20.6525","country_name":"Albania"},{"city_name":"Korçë","country_code":"AL","latitude":"40.61861","longitude":"20.78083","country_name":"Albania"},{"city_name":"Gjirokastër","country_code":"AL","latitude":"40.07583","longitude":"20.13889","country_name":"Albania"},{"city_name":"Elbasan","country_code":"AL","latitude":"41.1125","longitude":"20.08222","country_name":"Albania"},{"city_name":"Vlorë","country_code":"AL","latitude":"40.4686","longitude":"19.48318","country_name":"Albania"},{"city_name":"Tirana","country_code":"AL","latitude":"41.3275","longitude":"19.81889","country_name":"Albania"},{"city_name":"Shkodër","country_code":"AL","latitude":"42.06828","longitude":"19.51258","country_name":"Albania"},{"city_name":"Patos Fshat","country_code":"AL","latitude":"40.64278","longitude":"19.65083","country_name":"Albania"},{"city_name":"Patos","country_code":"AL","latitude":"40.68333","longitude":"19.61944","country_name":"Albania"},{"city_name":"Lushnjë","country_code":"AL","latitude":"40.94194","longitude":"19.705","country_name":"Albania"},{"city_name":"Laç","country_code":"AL","latitude":"41.63556","longitude":"19.71306","country_name":"Albania"},{"city_name":"Krujë","country_code":"AL","latitude":"41.50917","longitude":"19.79278","country_name":"Albania"},{"city_name":"Kavajë","country_code":"AL","latitude":"41.18556","longitude":"19.55694","country_name":"Albania"},{"city_name":"Fier-Çifçi","country_code":"AL","latitude":"40.71667","longitude":"19.56667","country_name":"Albania"},{"city_name":"Fier","country_code":"AL","latitude":"40.72389","longitude":"19.55611","country_name":"Albania"},{"city_name":"Durrës","country_code":"AL","latitude":"41.32355","longitude":"19.45469","country_name":"Albania"},{"city_name":"Berat","country_code":"AL","latitude":"40.70583","longitude":"19.95222","country_name":"Albania"},{"city_name":"Kapan","country_code":"AM","latitude":"39.20755","longitude":"46.40576","country_name":"Armenia"},{"city_name":"Goris","country_code":"AM","latitude":"39.51111","longitude":"46.34168","country_name":"Armenia"},{"city_name":"Artashat","country_code":"AM","latitude":"39.96144","longitude":"44.54447","country_name":"Armenia"},{"city_name":"Ararat","country_code":"AM","latitude":"39.83069","longitude":"44.70569","country_name":"Armenia"},{"city_name":"Yerevan","country_code":"AM","latitude":"40.18111","longitude":"44.51361","country_name":"Armenia"},{"city_name":"Vagharshapat","country_code":"AM","latitude":"40.16557","longitude":"44.29462","country_name":"Armenia"},{"city_name":"Step’anavan","country_code":"AM","latitude":"41.00995","longitude":"44.38531","country_name":"Armenia"},{"city_name":"Vanadzor","country_code":"AM","latitude":"40.80456","longitude":"44.4939","country_name":"Armenia"},{"city_name":"Gavarr","country_code":"AM","latitude":"40.35398","longitude":"45.12386","country_name":"Armenia"},{"city_name":"Hrazdan","country_code":"AM","latitude":"40.49748","longitude":"44.7662","country_name":"Armenia"},{"city_name":"Armavir","country_code":"AM","latitude":"40.15446","longitude":"44.03815","country_name":"Armenia"},{"city_name":"Gyumri","country_code":"AM","latitude":"40.7942","longitude":"43.84528","country_name":"Armenia"},{"city_name":"Abovyan","country_code":"AM","latitude":"40.27368","longitude":"44.63348","country_name":"Armenia"},{"city_name":"Saurimo","country_code":"AO","latitude":"-9.66078","longitude":"20.39155","country_name":"Angola"},{"city_name":"Lucapa","country_code":"AO","latitude":"-8.41915","longitude":"20.74466","country_name":"Angola"},{"city_name":"Uíge","country_code":"AO","latitude":"-7.60874","longitude":"15.06131","country_name":"Angola"},{"city_name":"Soio","country_code":"AO","latitude":"-6.1349","longitude":"12.36894","country_name":"Angola"},{"city_name":"N’dalatando","country_code":"AO","latitude":"-9.29782","longitude":"14.91162","country_name":"Angola"},{"city_name":"Mbanza Kongo","country_code":"AO","latitude":"-6.26703","longitude":"14.2401","country_name":"Angola"},{"city_name":"Malanje","country_code":"AO","latitude":"-9.54015","longitude":"16.34096","country_name":"Angola"},{"city_name":"Luanda","country_code":"AO","latitude":"-8.83682","longitude":"13.23432","country_name":"Angola"},{"city_name":"Caxito","country_code":"AO","latitude":"-8.57848","longitude":"13.66425","country_name":"Angola"},{"city_name":"Cabinda","country_code":"AO","latitude":"-5.55","longitude":"12.2","country_name":"Angola"},{"city_name":"Sumbe","country_code":"AO","latitude":"-11.20605","longitude":"13.84371","country_name":"Angola"},{"city_name":"Namibe","country_code":"AO","latitude":"-15.19611","longitude":"12.15222","country_name":"Angola"},{"city_name":"Menongue","country_code":"AO","latitude":"-14.6585","longitude":"17.69099","country_name":"Angola"},{"city_name":"Luena","country_code":"AO","latitude":"-11.78333","longitude":"19.91667","country_name":"Angola"},{"city_name":"Lubango","country_code":"AO","latitude":"-14.91717","longitude":"13.4925","country_name":"Angola"},{"city_name":"Longonjo","country_code":"AO","latitude":"-12.90667","longitude":"15.25333","country_name":"Angola"},{"city_name":"Lobito","country_code":"AO","latitude":"-12.3644","longitude":"13.53601","country_name":"Angola"},{"city_name":"Cuito","country_code":"AO","latitude":"-12.38333","longitude":"16.93333","country_name":"Angola"},{"city_name":"Huambo","country_code":"AO","latitude":"-12.77611","longitude":"15.73917","country_name":"Angola"},{"city_name":"Caála","country_code":"AO","latitude":"-12.8525","longitude":"15.56056","country_name":"Angola"},{"city_name":"Benguela","country_code":"AO","latitude":"-12.57626","longitude":"13.40547","country_name":"Angola"},{"city_name":"Zárate","country_code":"AR","latitude":"-34.09814","longitude":"-59.02858","country_name":"Argentina"},{"city_name":"Villa Ortúzar","country_code":"AR","latitude":"-34.57973","longitude":"-58.46829","country_name":"Argentina"},{"city_name":"Villa Lugano","country_code":"AR","latitude":"-34.67907","longitude":"-58.47263","country_name":"Argentina"},{"city_name":"Villaguay","country_code":"AR","latitude":"-31.8653","longitude":"-59.02689","country_name":"Argentina"},{"city_name":"Villa Gesell","country_code":"AR","latitude":"-37.26394","longitude":"-56.97304","country_name":"Argentina"},{"city_name":"Villa de Mayo","country_code":"AR","latitude":"-34.5108","longitude":"-58.68059","country_name":"Argentina"},{"city_name":"Tortuguitas","country_code":"AR","latitude":"-34.47513","longitude":"-58.75367","country_name":"Argentina"},{"city_name":"Tigre","country_code":"AR","latitude":"-34.42603","longitude":"-58.57962","country_name":"Argentina"},{"city_name":"Tandil","country_code":"AR","latitude":"-37.32167","longitude":"-59.13316","country_name":"Argentina"},{"city_name":"San Vicente","country_code":"AR","latitude":"-26.61667","longitude":"-54.13333","country_name":"Argentina"},{"city_name":"Santo Tomé","country_code":"AR","latitude":"-28.54939","longitude":"-56.04077","country_name":"Argentina"},{"city_name":"San Pedro","country_code":"AR","latitude":"-33.67918","longitude":"-59.66633","country_name":"Argentina"},{"city_name":"San Pedro","country_code":"AR","latitude":"-26.62207","longitude":"-54.10842","country_name":"Argentina"},{"city_name":"San Lorenzo","country_code":"AR","latitude":"-28.13306","longitude":"-58.76733","country_name":"Argentina"},{"city_name":"San Isidro","country_code":"AR","latitude":"-34.4721","longitude":"-58.52708","country_name":"Argentina"},{"city_name":"Retiro","country_code":"AR","latitude":"-34.58333","longitude":"-58.38333","country_name":"Argentina"},{"city_name":"Resistencia","country_code":"AR","latitude":"-27.46056","longitude":"-58.98389","country_name":"Argentina"},{"city_name":"Reconquista","country_code":"AR","latitude":"-29.15","longitude":"-59.65","country_name":"Argentina"},{"city_name":"Quilmes","country_code":"AR","latitude":"-34.72904","longitude":"-58.26374","country_name":"Argentina"},{"city_name":"Puerto Iguazú","country_code":"AR","latitude":"-25.59912","longitude":"-54.57355","country_name":"Argentina"},{"city_name":"Puerto Eldorado","country_code":"AR","latitude":"-26.40843","longitude":"-54.69463","country_name":"Argentina"},{"city_name":"Posadas","country_code":"AR","latitude":"-27.36708","longitude":"-55.89608","country_name":"Argentina"},{"city_name":"Pontevedra","country_code":"AR","latitude":"-34.74785","longitude":"-58.70072","country_name":"Argentina"},{"city_name":"Pilar","country_code":"AR","latitude":"-34.45866","longitude":"-58.9142","country_name":"Argentina"},{"city_name":"Paso de los Libres","country_code":"AR","latitude":"-29.71251","longitude":"-57.08771","country_name":"Argentina"},{"city_name":"Oberá","country_code":"AR","latitude":"-27.48706","longitude":"-55.11994","country_name":"Argentina"},{"city_name":"Necochea","country_code":"AR","latitude":"-38.5545","longitude":"-58.73961","country_name":"Argentina"},{"city_name":"Muñiz","country_code":"AR","latitude":"-34.55622","longitude":"-58.70739","country_name":"Argentina"},{"city_name":"Morón","country_code":"AR","latitude":"-34.6509","longitude":"-58.61956","country_name":"Argentina"},{"city_name":"Monte Caseros","country_code":"AR","latitude":"-30.25359","longitude":"-57.63626","country_name":"Argentina"},{"city_name":"Montecarlo","country_code":"AR","latitude":"-26.5662","longitude":"-54.757","country_name":"Argentina"},{"city_name":"Merlo","country_code":"AR","latitude":"-34.66627","longitude":"-58.72927","country_name":"Argentina"},{"city_name":"Mercedes","country_code":"AR","latitude":"-34.65145","longitude":"-59.43068","country_name":"Argentina"},{"city_name":"Mercedes","country_code":"AR","latitude":"-29.18416","longitude":"-58.07519","country_name":"Argentina"},{"city_name":"Mar del Plata","country_code":"AR","latitude":"-38.00042","longitude":"-57.5562","country_name":"Argentina"},{"city_name":"Luján","country_code":"AR","latitude":"-34.57028","longitude":"-59.105","country_name":"Argentina"},{"city_name":"Los Polvorines","country_code":"AR","latitude":"-34.50316","longitude":"-58.70596","country_name":"Argentina"},{"city_name":"La Plata","country_code":"AR","latitude":"-34.92145","longitude":"-57.95453","country_name":"Argentina"},{"city_name":"La Paz","country_code":"AR","latitude":"-30.74179","longitude":"-59.64517","country_name":"Argentina"},{"city_name":"Jardín América","country_code":"AR","latitude":"-27.04346","longitude":"-55.22698","country_name":"Argentina"},{"city_name":"Hurlingham","country_code":"AR","latitude":"-34.5904","longitude":"-58.62904","country_name":"Argentina"},{"city_name":"Gualeguaychú","country_code":"AR","latitude":"-33.00937","longitude":"-58.51722","country_name":"Argentina"},{"city_name":"Gualeguay","country_code":"AR","latitude":"-33.14156","longitude":"-59.30966","country_name":"Argentina"},{"city_name":"Goya","country_code":"AR","latitude":"-29.13995","longitude":"-59.26343","country_name":"Argentina"},{"city_name":"Gobernador Virasora","country_code":"AR","latitude":"-28.05","longitude":"-56.03333","country_name":"Argentina"},{"city_name":"General Pacheco","country_code":"AR","latitude":"-34.45256","longitude":"-58.64312","country_name":"Argentina"},{"city_name":"General José de San Martín","country_code":"AR","latitude":"-26.53743","longitude":"-59.34158","country_name":"Argentina"},{"city_name":"Garupá","country_code":"AR","latitude":"-27.48171","longitude":"-55.82921","country_name":"Argentina"},{"city_name":"Formosa","country_code":"AR","latitude":"-26.18489","longitude":"-58.17313","country_name":"Argentina"},{"city_name":"Fontana","country_code":"AR","latitude":"-27.41813","longitude":"-59.02392","country_name":"Argentina"},{"city_name":"Esquina","country_code":"AR","latitude":"-30.01476","longitude":"-59.5289","country_name":"Argentina"},{"city_name":"Don Torcuato","country_code":"AR","latitude":"-34.49459","longitude":"-58.62729","country_name":"Argentina"},{"city_name":"Dolores","country_code":"AR","latitude":"-36.31321","longitude":"-57.67918","country_name":"Argentina"},{"city_name":"Curuzú Cuatiá","country_code":"AR","latitude":"-29.79171","longitude":"-58.0546","country_name":"Argentina"},{"city_name":"Corrientes","country_code":"AR","latitude":"-27.46784","longitude":"-58.8344","country_name":"Argentina"},{"city_name":"Concordia","country_code":"AR","latitude":"-31.39296","longitude":"-58.02089","country_name":"Argentina"},{"city_name":"Concepción del Uruguay","country_code":"AR","latitude":"-32.48463","longitude":"-58.23217","country_name":"Argentina"},{"city_name":"Colegiales","country_code":"AR","latitude":"-34.57365","longitude":"-58.44924","country_name":"Argentina"},{"city_name":"Chajarí","country_code":"AR","latitude":"-30.75048","longitude":"-57.97962","country_name":"Argentina"},{"city_name":"Campana","country_code":"AR","latitude":"-34.16327","longitude":"-58.95919","country_name":"Argentina"},{"city_name":"Buenos Aires","country_code":"AR","latitude":"-34.61315","longitude":"-58.37723","country_name":"Argentina"},{"city_name":"Boedo","country_code":"AR","latitude":"-34.63333","longitude":"-58.41667","country_name":"Argentina"},{"city_name":"Berazategui","country_code":"AR","latitude":"-34.76531","longitude":"-58.21278","country_name":"Argentina"},{"city_name":"Belgrano","country_code":"AR","latitude":"-34.5627","longitude":"-58.45829","country_name":"Argentina"},{"city_name":"Barranqueras","country_code":"AR","latitude":"-27.48132","longitude":"-58.93925","country_name":"Argentina"},{"city_name":"Barracas","country_code":"AR","latitude":"-34.64966","longitude":"-58.38341","country_name":"Argentina"},{"city_name":"Balcarce","country_code":"AR","latitude":"-37.84616","longitude":"-58.25522","country_name":"Argentina"},{"city_name":"Azul","country_code":"AR","latitude":"-36.77698","longitude":"-59.85854","country_name":"Argentina"},{"city_name":"Avellaneda","country_code":"AR","latitude":"-29.11761","longitude":"-59.65834","country_name":"Argentina"},{"city_name":"Aristóbulo del Valle","country_code":"AR","latitude":"-27.09625","longitude":"-54.89626","country_name":"Argentina"},{"city_name":"Zapala","country_code":"AR","latitude":"-38.89916","longitude":"-70.05442","country_name":"Argentina"},{"city_name":"Yerba Buena","country_code":"AR","latitude":"-26.81667","longitude":"-65.31667","country_name":"Argentina"},{"city_name":"Villa Regina","country_code":"AR","latitude":"-39.1","longitude":"-67.06667","country_name":"Argentina"},{"city_name":"Villa María","country_code":"AR","latitude":"-32.40751","longitude":"-63.24016","country_name":"Argentina"},{"city_name":"Villa Dolores","country_code":"AR","latitude":"-31.94585","longitude":"-65.18958","country_name":"Argentina"},{"city_name":"Villa Constitución","country_code":"AR","latitude":"-33.22778","longitude":"-60.3297","country_name":"Argentina"},{"city_name":"Villa Carlos Paz","country_code":"AR","latitude":"-31.42414","longitude":"-64.49778","country_name":"Argentina"},{"city_name":"Villa Ángela","country_code":"AR","latitude":"-27.57383","longitude":"-60.71526","country_name":"Argentina"},{"city_name":"Villa Allende","country_code":"AR","latitude":"-31.29458","longitude":"-64.29538","country_name":"Argentina"},{"city_name":"Viedma","country_code":"AR","latitude":"-40.81345","longitude":"-62.99668","country_name":"Argentina"},{"city_name":"Victoria","country_code":"AR","latitude":"-32.61841","longitude":"-60.15478","country_name":"Argentina"},{"city_name":"Venado Tuerto","country_code":"AR","latitude":"-33.74556","longitude":"-61.96885","country_name":"Argentina"},{"city_name":"Veinticinco de Mayo","country_code":"AR","latitude":"-35.4323","longitude":"-60.17271","country_name":"Argentina"},{"city_name":"Ushuaia","country_code":"AR","latitude":"-54.81084","longitude":"-68.31591","country_name":"Argentina"},{"city_name":"Tres Isletas","country_code":"AR","latitude":"-26.34067","longitude":"-60.43207","country_name":"Argentina"},{"city_name":"Tres Arroyos","country_code":"AR","latitude":"-38.37394","longitude":"-60.27978","country_name":"Argentina"},{"city_name":"Trelew","country_code":"AR","latitude":"-43.24895","longitude":"-65.30505","country_name":"Argentina"},{"city_name":"Termas de Río Hondo","country_code":"AR","latitude":"-27.49362","longitude":"-64.85972","country_name":"Argentina"},{"city_name":"Tartagal","country_code":"AR","latitude":"-22.51637","longitude":"-63.80131","country_name":"Argentina"},{"city_name":"Tafí Viejo","country_code":"AR","latitude":"-26.73201","longitude":"-65.25921","country_name":"Argentina"},{"city_name":"Santo Tomé","country_code":"AR","latitude":"-31.66274","longitude":"-60.7653","country_name":"Argentina"},{"city_name":"Santiago del Estero","country_code":"AR","latitude":"-27.79511","longitude":"-64.26149","country_name":"Argentina"},{"city_name":"Santa Rosa","country_code":"AR","latitude":"-36.61667","longitude":"-64.28333","country_name":"Argentina"},{"city_name":"Santa Lucía","country_code":"AR","latitude":"-31.53987","longitude":"-68.49503","country_name":"Argentina"},{"city_name":"Santa Fe","country_code":"AR","latitude":"-31.64881","longitude":"-60.70868","country_name":"Argentina"},{"city_name":"San Salvador de Jujuy","country_code":"AR","latitude":"-24.19457","longitude":"-65.29712","country_name":"Argentina"},{"city_name":"San Ramón de la Nueva Orán","country_code":"AR","latitude":"-23.13705","longitude":"-64.32426","country_name":"Argentina"},{"city_name":"San Rafael","country_code":"AR","latitude":"-34.61772","longitude":"-68.33007","country_name":"Argentina"},{"city_name":"San Pedro de Jujuy","country_code":"AR","latitude":"-24.23127","longitude":"-64.86614","country_name":"Argentina"},{"city_name":"San Nicolás de los Arroyos","country_code":"AR","latitude":"-33.33425","longitude":"-60.2108","country_name":"Argentina"},{"city_name":"San Miguel de Tucumán","country_code":"AR","latitude":"-26.82414","longitude":"-65.2226","country_name":"Argentina"},{"city_name":"San Martín de los Andes","country_code":"AR","latitude":"-40.15789","longitude":"-71.35337","country_name":"Argentina"},{"city_name":"San Martín","country_code":"AR","latitude":"-33.08103","longitude":"-68.46814","country_name":"Argentina"},{"city_name":"San Luis","country_code":"AR","latitude":"-33.29501","longitude":"-66.33563","country_name":"Argentina"},{"city_name":"San Justo","country_code":"AR","latitude":"-30.78913","longitude":"-60.59189","country_name":"Argentina"},{"city_name":"San Juan","country_code":"AR","latitude":"-31.5375","longitude":"-68.53639","country_name":"Argentina"},{"city_name":"San José de Jáchal","country_code":"AR","latitude":"-30.24057","longitude":"-68.74693","country_name":"Argentina"},{"city_name":"San Francisco","country_code":"AR","latitude":"-31.42797","longitude":"-62.08266","country_name":"Argentina"},{"city_name":"San Fernando del Valle de Catamarca","country_code":"AR","latitude":"-28.46957","longitude":"-65.78524","country_name":"Argentina"},{"city_name":"Salta","country_code":"AR","latitude":"-24.7859","longitude":"-65.41166","country_name":"Argentina"},{"city_name":"Rosario","country_code":"AR","latitude":"-32.94682","longitude":"-60.63932","country_name":"Argentina"},{"city_name":"Río Tercero","country_code":"AR","latitude":"-32.17301","longitude":"-64.11405","country_name":"Argentina"},{"city_name":"Río Grande","country_code":"AR","latitude":"-53.78769","longitude":"-67.70946","country_name":"Argentina"},{"city_name":"Río Gallegos","country_code":"AR","latitude":"-51.62261","longitude":"-69.21813","country_name":"Argentina"},{"city_name":"Río Cuarto","country_code":"AR","latitude":"-33.13067","longitude":"-64.34992","country_name":"Argentina"},{"city_name":"Rawson","country_code":"AR","latitude":"-43.30016","longitude":"-65.10228","country_name":"Argentina"},{"city_name":"Rafaela","country_code":"AR","latitude":"-31.25033","longitude":"-61.4867","country_name":"Argentina"},{"city_name":"Quitilipi","country_code":"AR","latitude":"-26.86913","longitude":"-60.21683","country_name":"Argentina"},{"city_name":"Punta Alta","country_code":"AR","latitude":"-38.87588","longitude":"-62.07359","country_name":"Argentina"},{"city_name":"Puerto Madryn","country_code":"AR","latitude":"-42.7692","longitude":"-65.03851","country_name":"Argentina"},{"city_name":"Presidencia Roque Sáenz Peña","country_code":"AR","latitude":"-26.78522","longitude":"-60.43876","country_name":"Argentina"},{"city_name":"Pocito","country_code":"AR","latitude":"-31.68333","longitude":"-68.58333","country_name":"Argentina"},{"city_name":"Plottier","country_code":"AR","latitude":"-38.96667","longitude":"-68.23333","country_name":"Argentina"},{"city_name":"Pergamino","country_code":"AR","latitude":"-33.88995","longitude":"-60.57357","country_name":"Argentina"},{"city_name":"Pérez","country_code":"AR","latitude":"-32.99835","longitude":"-60.76791","country_name":"Argentina"},{"city_name":"Paraná","country_code":"AR","latitude":"-31.73271","longitude":"-60.52897","country_name":"Argentina"},{"city_name":"Palpalá","country_code":"AR","latitude":"-24.25647","longitude":"-65.21163","country_name":"Argentina"},{"city_name":"Olavarría","country_code":"AR","latitude":"-36.89272","longitude":"-60.32254","country_name":"Argentina"},{"city_name":"Nueve de Julio","country_code":"AR","latitude":"-35.44437","longitude":"-60.88313","country_name":"Argentina"},{"city_name":"Neuquén","country_code":"AR","latitude":"-38.95161","longitude":"-68.0591","country_name":"Argentina"},{"city_name":"Monteros","country_code":"AR","latitude":"-27.16741","longitude":"-65.49832","country_name":"Argentina"},{"city_name":"Mendoza","country_code":"AR","latitude":"-32.89084","longitude":"-68.82717","country_name":"Argentina"},{"city_name":"Marcos Juárez","country_code":"AR","latitude":"-32.6978","longitude":"-62.10672","country_name":"Argentina"},{"city_name":"Machagai","country_code":"AR","latitude":"-26.92614","longitude":"-60.04955","country_name":"Argentina"},{"city_name":"Lincoln","country_code":"AR","latitude":"-34.86649","longitude":"-61.5302","country_name":"Argentina"},{"city_name":"Libertador General San Martín","country_code":"AR","latitude":"-23.80644","longitude":"-64.78757","country_name":"Argentina"},{"city_name":"Las Breñas","country_code":"AR","latitude":"-27.08966","longitude":"-61.08161","country_name":"Argentina"},{"city_name":"La Rioja","country_code":"AR","latitude":"-29.41105","longitude":"-66.85067","country_name":"Argentina"},{"city_name":"La Calera","country_code":"AR","latitude":"-31.34377","longitude":"-64.33529","country_name":"Argentina"},{"city_name":"Junín","country_code":"AR","latitude":"-34.58382","longitude":"-60.94332","country_name":"Argentina"},{"city_name":"Jesús María","country_code":"AR","latitude":"-30.98153","longitude":"-64.09424","country_name":"Argentina"},{"city_name":"Granadero Baigorria","country_code":"AR","latitude":"-32.85683","longitude":"-60.71754","country_name":"Argentina"},{"city_name":"Gobernador Gálvez","country_code":"AR","latitude":"-33.03016","longitude":"-60.64045","country_name":"Argentina"},{"city_name":"General Roca","country_code":"AR","latitude":"-39.03333","longitude":"-67.58333","country_name":"Argentina"},{"city_name":"General Pico","country_code":"AR","latitude":"-35.65662","longitude":"-63.75682","country_name":"Argentina"},{"city_name":"Famaillá","country_code":"AR","latitude":"-27.05413","longitude":"-65.40329","country_name":"Argentina"},{"city_name":"Esquel","country_code":"AR","latitude":"-42.91147","longitude":"-71.31947","country_name":"Argentina"},{"city_name":"Esperanza","country_code":"AR","latitude":"-31.4488","longitude":"-60.93173","country_name":"Argentina"},{"city_name":"Embarcación","country_code":"AR","latitude":"-23.21003","longitude":"-64.09965","country_name":"Argentina"},{"city_name":"Deán Funes","country_code":"AR","latitude":"-30.42036","longitude":"-64.34984","country_name":"Argentina"},{"city_name":"Cutral-Có","country_code":"AR","latitude":"-38.93424","longitude":"-69.23052","country_name":"Argentina"},{"city_name":"Cruz del Eje","country_code":"AR","latitude":"-30.72644","longitude":"-64.80387","country_name":"Argentina"},{"city_name":"Coronel Suárez","country_code":"AR","latitude":"-37.45467","longitude":"-61.93343","country_name":"Argentina"},{"city_name":"Córdoba","country_code":"AR","latitude":"-31.4135","longitude":"-64.18105","country_name":"Argentina"},{"city_name":"Comodoro Rivadavia","country_code":"AR","latitude":"-45.86413","longitude":"-67.49656","country_name":"Argentina"},{"city_name":"Cipolletti","country_code":"AR","latitude":"-38.93392","longitude":"-67.99032","country_name":"Argentina"},{"city_name":"Chivilcoy","country_code":"AR","latitude":"-34.89566","longitude":"-60.01667","country_name":"Argentina"},{"city_name":"Chimbas","country_code":"AR","latitude":"-31.48333","longitude":"-68.53333","country_name":"Argentina"},{"city_name":"Chilecito","country_code":"AR","latitude":"-29.16195","longitude":"-67.4974","country_name":"Argentina"},{"city_name":"Charata","country_code":"AR","latitude":"-27.21438","longitude":"-61.18795","country_name":"Argentina"},{"city_name":"Chacabuco","country_code":"AR","latitude":"-34.64167","longitude":"-60.47389","country_name":"Argentina"},{"city_name":"Centenario","country_code":"AR","latitude":"-38.82955","longitude":"-68.1318","country_name":"Argentina"},{"city_name":"Caucete","country_code":"AR","latitude":"-31.65179","longitude":"-68.28105","country_name":"Argentina"},{"city_name":"Castelli","country_code":"AR","latitude":"-25.94679","longitude":"-60.61947","country_name":"Argentina"},{"city_name":"Casilda","country_code":"AR","latitude":"-33.04417","longitude":"-61.16806","country_name":"Argentina"},{"city_name":"Capitán Bermúdez","country_code":"AR","latitude":"-32.82262","longitude":"-60.71852","country_name":"Argentina"},{"city_name":"Cañada de Gómez","country_code":"AR","latitude":"-32.81636","longitude":"-61.39493","country_name":"Argentina"},{"city_name":"Caleta Olivia","country_code":"AR","latitude":"-46.43929","longitude":"-67.52814","country_name":"Argentina"},{"city_name":"Bell Ville","country_code":"AR","latitude":"-32.62591","longitude":"-62.68873","country_name":"Argentina"},{"city_name":"Bahía Blanca","country_code":"AR","latitude":"-38.71959","longitude":"-62.27243","country_name":"Argentina"},{"city_name":"Arroyo Seco","country_code":"AR","latitude":"-33.15489","longitude":"-60.50863","country_name":"Argentina"},{"city_name":"Añatuya","country_code":"AR","latitude":"-28.46064","longitude":"-62.83472","country_name":"Argentina"},{"city_name":"Alta Gracia","country_code":"AR","latitude":"-31.65292","longitude":"-64.42826","country_name":"Argentina"},{"city_name":"Allen","country_code":"AR","latitude":"-38.97736","longitude":"-67.82714","country_name":"Argentina"},{"city_name":"Alderetes","country_code":"AR","latitude":"-26.81667","longitude":"-65.13333","country_name":"Argentina"},{"city_name":"Albardón","country_code":"AR","latitude":"-31.43722","longitude":"-68.52556","country_name":"Argentina"},{"city_name":"Aguilares","country_code":"AR","latitude":"-27.4338","longitude":"-65.61427","country_name":"Argentina"},{"city_name":"Balvanera","country_code":"AR","latitude":"-34.61032","longitude":"-58.39766","country_name":"Argentina"},{"city_name":"Villa Santa Rita","country_code":"AR","latitude":"-34.61082","longitude":"-58.481","country_name":"Argentina"},{"city_name":"Villa Mercedes","country_code":"AR","latitude":"-33.67571","longitude":"-65.45783","country_name":"Argentina"},{"city_name":"San Miguel","country_code":"AR","latitude":"-34.54335","longitude":"-58.71229","country_name":"Argentina"},{"city_name":"San Carlos de Bariloche","country_code":"AR","latitude":"-41.14557","longitude":"-71.30822","country_name":"Argentina"},{"city_name":"Adrogué","country_code":"AR","latitude":"-34.80041","longitude":"-58.38384","country_name":"Argentina"},{"city_name":"Ingeniero Pablo Nogués","country_code":"AR","latitude":"-34.47775","longitude":"-58.70652","country_name":"Argentina"},{"city_name":"José C. Paz","country_code":"AR","latitude":"-34.51541","longitude":"-58.76813","country_name":"Argentina"},{"city_name":"Wiener Neustadt","country_code":"AT","latitude":"47.80485","longitude":"16.23196","country_name":"Austria"},{"city_name":"Vienna","country_code":"AT","latitude":"48.20849","longitude":"16.37208","country_name":"Austria"},{"city_name":"Weinzierl bei Krems","country_code":"AT","latitude":"48.4","longitude":"15.6","country_name":"Austria"},{"city_name":"Villach","country_code":"AT","latitude":"46.61028","longitude":"13.85583","country_name":"Austria"},{"city_name":"Steyr","country_code":"AT","latitude":"48.04274","longitude":"14.42127","country_name":"Austria"},{"city_name":"Simmering","country_code":"AT","latitude":"48.18333","longitude":"16.43333","country_name":"Austria"},{"city_name":"Sankt Pölten","country_code":"AT","latitude":"48.2","longitude":"15.63333","country_name":"Austria"},{"city_name":"Sankt Peter","country_code":"AT","latitude":"46.62978","longitude":"14.34016","country_name":"Austria"},{"city_name":"Salzburg","country_code":"AT","latitude":"47.79941","longitude":"13.04399","country_name":"Austria"},{"city_name":"Pradl","country_code":"AT","latitude":"47.26539","longitude":"11.4152","country_name":"Austria"},{"city_name":"Ottakring","country_code":"AT","latitude":"48.21667","longitude":"16.3","country_name":"Austria"},{"city_name":"Mödling","country_code":"AT","latitude":"48.08605","longitude":"16.28921","country_name":"Austria"},{"city_name":"Meidling","country_code":"AT","latitude":"48.16667","longitude":"16.33333","country_name":"Austria"},{"city_name":"Lustenau","country_code":"AT","latitude":"47.42642","longitude":"9.65851","country_name":"Austria"},{"city_name":"Linz","country_code":"AT","latitude":"48.30639","longitude":"14.28611","country_name":"Austria"},{"city_name":"Klagenfurt am Wörthersee","country_code":"AT","latitude":"46.62472","longitude":"14.30528","country_name":"Austria"},{"city_name":"Innsbruck","country_code":"AT","latitude":"47.26266","longitude":"11.39454","country_name":"Austria"},{"city_name":"Hötting","country_code":"AT","latitude":"47.26815","longitude":"11.36868","country_name":"Austria"},{"city_name":"Hietzing","country_code":"AT","latitude":"48.18623","longitude":"16.2965","country_name":"Austria"},{"city_name":"Hernals","country_code":"AT","latitude":"48.23333","longitude":"16.26667","country_name":"Austria"},{"city_name":"Graz","country_code":"AT","latitude":"47.06667","longitude":"15.45","country_name":"Austria"},{"city_name":"Floridsdorf","country_code":"AT","latitude":"48.25","longitude":"16.4","country_name":"Austria"},{"city_name":"Feldkirch","country_code":"AT","latitude":"47.23306","longitude":"9.6","country_name":"Austria"},{"city_name":"Eggenberg","country_code":"AT","latitude":"47.07","longitude":"15.39871","country_name":"Austria"},{"city_name":"Dornbirn","country_code":"AT","latitude":"47.41427","longitude":"9.74195","country_name":"Austria"},{"city_name":"Bregenz","country_code":"AT","latitude":"47.50311","longitude":"9.7471","country_name":"Austria"},{"city_name":"Baden","country_code":"AT","latitude":"48.00543","longitude":"16.23264","country_name":"Austria"},{"city_name":"Favoriten","country_code":"AT","latitude":"48.16116","longitude":"16.38233","country_name":"Austria"},{"city_name":"Donaustadt","country_code":"AT","latitude":"48.2333","longitude":"16.46002","country_name":"Austria"},{"city_name":"Jakomini","country_code":"AT","latitude":"47.05441","longitude":"15.44984","country_name":"Austria"},{"city_name":"Lend","country_code":"AT","latitude":"47.08256","longitude":"15.41589","country_name":"Austria"},{"city_name":"Geidorf","country_code":"AT","latitude":"47.08393","longitude":"15.444","country_name":"Austria"},{"city_name":"Gries","country_code":"AT","latitude":"47.06236","longitude":"15.42421","country_name":"Austria"},{"city_name":"Rockingham","country_code":"AU","latitude":"-32.27682","longitude":"115.72978","country_name":"Australia"},{"city_name":"Perth","country_code":"AU","latitude":"-31.95224","longitude":"115.8614","country_name":"Australia"},{"city_name":"Mount Isa","country_code":"AU","latitude":"-20.72523","longitude":"139.49727","country_name":"Australia"},{"city_name":"Morphett Vale","country_code":"AU","latitude":"-35.13333","longitude":"138.51667","country_name":"Australia"},{"city_name":"Mandurah","country_code":"AU","latitude":"-32.5269","longitude":"115.7217","country_name":"Australia"},{"city_name":"Kwinana","country_code":"AU","latitude":"-32.23013","longitude":"115.78128","country_name":"Australia"},{"city_name":"Geraldton","country_code":"AU","latitude":"-28.77897","longitude":"114.61459","country_name":"Australia"},{"city_name":"Gawler","country_code":"AU","latitude":"-34.60251","longitude":"138.74902","country_name":"Australia"},{"city_name":"Darwin","country_code":"AU","latitude":"-12.46113","longitude":"130.84185","country_name":"Australia"},{"city_name":"Busselton","country_code":"AU","latitude":"-33.65249","longitude":"115.3455","country_name":"Australia"},{"city_name":"Bunbury","country_code":"AU","latitude":"-33.32711","longitude":"115.64137","country_name":"Australia"},{"city_name":"Alice Springs","country_code":"AU","latitude":"-23.69748","longitude":"133.88362","country_name":"Australia"},{"city_name":"Albany","country_code":"AU","latitude":"-35.02692","longitude":"117.88369","country_name":"Australia"},{"city_name":"Adelaide","country_code":"AU","latitude":"-34.92866","longitude":"138.59863","country_name":"Australia"},{"city_name":"Werribee","country_code":"AU","latitude":"-37.9","longitude":"144.66667","country_name":"Australia"},{"city_name":"Warrnambool","country_code":"AU","latitude":"-38.38176","longitude":"142.48799","country_name":"Australia"},{"city_name":"Upper Coomera","country_code":"AU","latitude":"-27.87683","longitude":"153.28572","country_name":"Australia"},{"city_name":"Truganina","country_code":"AU","latitude":"-37.81667","longitude":"144.75","country_name":"Australia"},{"city_name":"Traralgon","country_code":"AU","latitude":"-38.19528","longitude":"146.5415","country_name":"Australia"},{"city_name":"Townsville","country_code":"AU","latitude":"-19.26639","longitude":"146.80569","country_name":"Australia"},{"city_name":"Toowoomba","country_code":"AU","latitude":"-27.56056","longitude":"151.95386","country_name":"Australia"},{"city_name":"Thomastown","country_code":"AU","latitude":"-37.68333","longitude":"145.01667","country_name":"Australia"},{"city_name":"Tarneit","country_code":"AU","latitude":"-37.83634","longitude":"144.65952","country_name":"Australia"},{"city_name":"Tamworth","country_code":"AU","latitude":"-31.09048","longitude":"150.92905","country_name":"Australia"},{"city_name":"Sydney","country_code":"AU","latitude":"-33.86785","longitude":"151.20732","country_name":"Australia"},{"city_name":"Surfers Paradise","country_code":"AU","latitude":"-28.00274","longitude":"153.42999","country_name":"Australia"},{"city_name":"Sunbury","country_code":"AU","latitude":"-37.57742","longitude":"144.72607","country_name":"Australia"},{"city_name":"Strathfield","country_code":"AU","latitude":"-33.88096","longitude":"151.07986","country_name":"Australia"},{"city_name":"Springvale","country_code":"AU","latitude":"-37.94853","longitude":"145.15274","country_name":"Australia"},{"city_name":"South Yarra","country_code":"AU","latitude":"-37.83834","longitude":"144.99149","country_name":"Australia"},{"city_name":"Southport","country_code":"AU","latitude":"-27.96724","longitude":"153.39796","country_name":"Australia"},{"city_name":"Shepparton","country_code":"AU","latitude":"-36.38047","longitude":"145.39867","country_name":"Australia"},{"city_name":"Saint Kilda","country_code":"AU","latitude":"-37.8676","longitude":"144.98099","country_name":"Australia"},{"city_name":"Saint Albans","country_code":"AU","latitude":"-37.73333","longitude":"144.8","country_name":"Australia"},{"city_name":"Ryde","country_code":"AU","latitude":"-33.8188","longitude":"151.1062","country_name":"Australia"},{"city_name":"Rowville","country_code":"AU","latitude":"-37.93333","longitude":"145.23333","country_name":"Australia"},{"city_name":"Rockhampton","country_code":"AU","latitude":"-23.38032","longitude":"150.50595","country_name":"Australia"},{"city_name":"Richmond","country_code":"AU","latitude":"-37.81819","longitude":"145.00176","country_name":"Australia"},{"city_name":"Reservoir","country_code":"AU","latitude":"-37.71667","longitude":"145","country_name":"Australia"},{"city_name":"Quakers Hill","country_code":"AU","latitude":"-33.73333","longitude":"150.88333","country_name":"Australia"},{"city_name":"Preston","country_code":"AU","latitude":"-37.75","longitude":"145.01667","country_name":"Australia"},{"city_name":"Port Macquarie","country_code":"AU","latitude":"-31.43084","longitude":"152.90894","country_name":"Australia"},{"city_name":"Point Cook","country_code":"AU","latitude":"-37.91482","longitude":"144.75088","country_name":"Australia"},{"city_name":"Pakenham","country_code":"AU","latitude":"-38.07018","longitude":"145.47411","country_name":"Australia"},{"city_name":"Orange","country_code":"AU","latitude":"-33.28397","longitude":"149.10018","country_name":"Australia"},{"city_name":"Northcote","country_code":"AU","latitude":"-37.76667","longitude":"145","country_name":"Australia"},{"city_name":"Noble Park","country_code":"AU","latitude":"-37.96667","longitude":"145.16667","country_name":"Australia"},{"city_name":"Newcastle","country_code":"AU","latitude":"-32.92953","longitude":"151.7801","country_name":"Australia"},{"city_name":"Narre Warren","country_code":"AU","latitude":"-38.03333","longitude":"145.3","country_name":"Australia"},{"city_name":"Mount Waverley","country_code":"AU","latitude":"-37.87709","longitude":"145.12939","country_name":"Australia"},{"city_name":"Mount Gambier","country_code":"AU","latitude":"-37.8318","longitude":"140.77919","country_name":"Australia"},{"city_name":"Mosman","country_code":"AU","latitude":"-33.83902","longitude":"151.23956","country_name":"Australia"},{"city_name":"Mornington","country_code":"AU","latitude":"-38.21792","longitude":"145.03876","country_name":"Australia"},{"city_name":"Morayfield","country_code":"AU","latitude":"-27.10876","longitude":"152.94907","country_name":"Australia"},{"city_name":"South Morang","country_code":"AU","latitude":"-37.65","longitude":"145.1","country_name":"Australia"},{"city_name":"Mooroolbark","country_code":"AU","latitude":"-37.78247","longitude":"145.31682","country_name":"Australia"},{"city_name":"Mill Park","country_code":"AU","latitude":"-37.66667","longitude":"145.06667","country_name":"Australia"},{"city_name":"Mildura","country_code":"AU","latitude":"-34.18551","longitude":"142.16251","country_name":"Australia"},{"city_name":"Merrylands","country_code":"AU","latitude":"-33.83333","longitude":"150.98333","country_name":"Australia"},{"city_name":"Melbourne","country_code":"AU","latitude":"-37.814","longitude":"144.96332","country_name":"Australia"},{"city_name":"Marrickville","country_code":"AU","latitude":"-33.90741","longitude":"151.15546","country_name":"Australia"},{"city_name":"Maroubra","country_code":"AU","latitude":"-33.95","longitude":"151.23333","country_name":"Australia"},{"city_name":"Maitland","country_code":"AU","latitude":"-32.73308","longitude":"151.5574","country_name":"Australia"},{"city_name":"Mackay","country_code":"AU","latitude":"-21.15345","longitude":"149.16554","country_name":"Australia"},{"city_name":"Liverpool","country_code":"AU","latitude":"-33.91938","longitude":"150.92588","country_name":"Australia"},{"city_name":"Launceston","country_code":"AU","latitude":"-41.43876","longitude":"147.13467","country_name":"Australia"},{"city_name":"Langwarrin","country_code":"AU","latitude":"-38.16667","longitude":"145.16667","country_name":"Australia"},{"city_name":"Lalor","country_code":"AU","latitude":"-37.66667","longitude":"145.01667","country_name":"Australia"},{"city_name":"Keysborough","country_code":"AU","latitude":"-37.99116","longitude":"145.17385","country_name":"Australia"},{"city_name":"Kew","country_code":"AU","latitude":"-37.80639","longitude":"145.03086","country_name":"Australia"},{"city_name":"Hornsby","country_code":"AU","latitude":"-33.70244","longitude":"151.09931","country_name":"Australia"},{"city_name":"Hobart","country_code":"AU","latitude":"-42.87936","longitude":"147.32941","country_name":"Australia"},{"city_name":"Hawthorn South","country_code":"AU","latitude":"-37.8329","longitude":"145.0367","country_name":"Australia"},{"city_name":"Hawthorn","country_code":"AU","latitude":"-37.81992","longitude":"145.0358","country_name":"Australia"},{"city_name":"Hampton Park","country_code":"AU","latitude":"-38.03333","longitude":"145.25","country_name":"Australia"},{"city_name":"Greensborough","country_code":"AU","latitude":"-37.70462","longitude":"145.10302","country_name":"Australia"},{"city_name":"Granville","country_code":"AU","latitude":"-33.8406","longitude":"151.00748","country_name":"Australia"},{"city_name":"Goulburn","country_code":"AU","latitude":"-34.75155","longitude":"149.72086","country_name":"Australia"},{"city_name":"Gold Coast","country_code":"AU","latitude":"-28.00029","longitude":"153.43088","country_name":"Australia"},{"city_name":"Glen Waverley","country_code":"AU","latitude":"-37.87811","longitude":"145.16476","country_name":"Australia"},{"city_name":"Glenroy","country_code":"AU","latitude":"-37.7","longitude":"144.93333","country_name":"Australia"},{"city_name":"Glen Iris","country_code":"AU","latitude":"-37.86667","longitude":"145.06667","country_name":"Australia"},{"city_name":"Glenferrie","country_code":"AU","latitude":"-37.83333","longitude":"145.05","country_name":"Australia"},{"city_name":"Gladstone","country_code":"AU","latitude":"-23.84852","longitude":"151.25775","country_name":"Australia"},{"city_name":"Geelong","country_code":"AU","latitude":"-38.14711","longitude":"144.36069","country_name":"Australia"},{"city_name":"Frankston East","country_code":"AU","latitude":"-38.13333","longitude":"145.13333","country_name":"Australia"},{"city_name":"Frankston","country_code":"AU","latitude":"-38.14458","longitude":"145.12291","country_name":"Australia"},{"city_name":"Essendon","country_code":"AU","latitude":"-37.74981","longitude":"144.9109","country_name":"Australia"},{"city_name":"Epping","country_code":"AU","latitude":"-37.65","longitude":"145.03333","country_name":"Australia"},{"city_name":"Epping","country_code":"AU","latitude":"-33.77271","longitude":"151.08184","country_name":"Australia"},{"city_name":"Dubbo","country_code":"AU","latitude":"-32.24295","longitude":"148.60484","country_name":"Australia"},{"city_name":"Doreen","country_code":"AU","latitude":"-37.6","longitude":"145.15","country_name":"Australia"},{"city_name":"Doncaster East","country_code":"AU","latitude":"-37.78761","longitude":"145.14888","country_name":"Australia"},{"city_name":"Doncaster","country_code":"AU","latitude":"-37.78828","longitude":"145.12373","country_name":"Australia"},{"city_name":"Dandenong","country_code":"AU","latitude":"-37.98333","longitude":"145.2","country_name":"Australia"},{"city_name":"Croydon","country_code":"AU","latitude":"-37.8","longitude":"145.28333","country_name":"Australia"},{"city_name":"Craigieburn","country_code":"AU","latitude":"-37.6","longitude":"144.95","country_name":"Australia"},{"city_name":"Coffs Harbour","country_code":"AU","latitude":"-30.29626","longitude":"153.11351","country_name":"Australia"},{"city_name":"Coburg","country_code":"AU","latitude":"-37.75","longitude":"144.96667","country_name":"Australia"},{"city_name":"Clayton","country_code":"AU","latitude":"-37.91667","longitude":"145.11667","country_name":"Australia"},{"city_name":"Wollongong","country_code":"AU","latitude":"-34.424","longitude":"150.89345","country_name":"Australia"},{"city_name":"Chatswood","country_code":"AU","latitude":"-33.8","longitude":"151.18333","country_name":"Australia"},{"city_name":"Castle Hill","country_code":"AU","latitude":"-33.73333","longitude":"151","country_name":"Australia"},{"city_name":"Carrum Downs","country_code":"AU","latitude":"-38.09968","longitude":"145.17248","country_name":"Australia"},{"city_name":"Carlingford","country_code":"AU","latitude":"-33.78269","longitude":"151.04888","country_name":"Australia"},{"city_name":"Canberra","country_code":"AU","latitude":"-35.28346","longitude":"149.12807","country_name":"Australia"},{"city_name":"Camberwell","country_code":"AU","latitude":"-37.84205","longitude":"145.0694","country_name":"Australia"},{"city_name":"Cairns","country_code":"AU","latitude":"-16.92366","longitude":"145.76613","country_name":"Australia"},{"city_name":"Caboolture","country_code":"AU","latitude":"-27.08465","longitude":"152.9511","country_name":"Australia"},{"city_name":"Bundaberg","country_code":"AU","latitude":"-24.86621","longitude":"152.3479","country_name":"Australia"},{"city_name":"Buderim","country_code":"AU","latitude":"-26.68443","longitude":"153.05705","country_name":"Australia"},{"city_name":"Brunswick","country_code":"AU","latitude":"-37.76667","longitude":"144.96667","country_name":"Australia"},{"city_name":"Brisbane","country_code":"AU","latitude":"-27.46794","longitude":"153.02809","country_name":"Australia"},{"city_name":"Brighton","country_code":"AU","latitude":"-37.90561","longitude":"145.00279","country_name":"Australia"},{"city_name":"Boronia","country_code":"AU","latitude":"-37.86667","longitude":"145.28333","country_name":"Australia"},{"city_name":"Blacktown","country_code":"AU","latitude":"-33.76667","longitude":"150.91667","country_name":"Australia"},{"city_name":"Berwick","country_code":"AU","latitude":"-38.03333","longitude":"145.35","country_name":"Australia"},{"city_name":"Bentleigh East","country_code":"AU","latitude":"-37.91928","longitude":"145.05301","country_name":"Australia"},{"city_name":"Bendigo","country_code":"AU","latitude":"-36.75818","longitude":"144.28024","country_name":"Australia"},{"city_name":"Baulkham Hills","country_code":"AU","latitude":"-33.75881","longitude":"150.99292","country_name":"Australia"},{"city_name":"Bathurst","country_code":"AU","latitude":"-33.41665","longitude":"149.5806","country_name":"Australia"},{"city_name":"Bankstown","country_code":"AU","latitude":"-33.91667","longitude":"151.03333","country_name":"Australia"},{"city_name":"Ballarat","country_code":"AU","latitude":"-37.56622","longitude":"143.84957","country_name":"Australia"},{"city_name":"Auburn","country_code":"AU","latitude":"-33.85","longitude":"151.03333","country_name":"Australia"},{"city_name":"Ashfield","country_code":"AU","latitude":"-33.88834","longitude":"151.12274","country_name":"Australia"},{"city_name":"Armidale","country_code":"AU","latitude":"-30.50123","longitude":"151.66553","country_name":"Australia"},{"city_name":"Cheltenham","country_code":"AU","latitude":"-37.96944","longitude":"145.04806","country_name":"Australia"},{"city_name":"Randwick","country_code":"AU","latitude":"-33.91439","longitude":"151.24895","country_name":"Australia"},{"city_name":"Dee Why","country_code":"AU","latitude":"-33.7511","longitude":"151.28886","country_name":"Australia"},{"city_name":"Palmerston","country_code":"AU","latitude":"-12.48602","longitude":"130.9833","country_name":"Australia"},{"city_name":"Hervey Bay","country_code":"AU","latitude":"-25.28762","longitude":"152.76936","country_name":"Australia"},{"city_name":"Sydney Central Business District","country_code":"AU","latitude":"-33.86482","longitude":"151.20773","country_name":"Australia"},{"city_name":"Kallangur","country_code":"AU","latitude":"-27.25204","longitude":"152.99226","country_name":"Australia"},{"city_name":"North Lakes","country_code":"AU","latitude":"-27.22426","longitude":"153.02075","country_name":"Australia"},{"city_name":"Caroline Springs","country_code":"AU","latitude":"-37.74124","longitude":"144.73631","country_name":"Australia"},{"city_name":"Hoppers Crossing","country_code":"AU","latitude":"-37.88264","longitude":"144.7003","country_name":"Australia"},{"city_name":"Logan City","country_code":"AU","latitude":"-27.63917","longitude":"153.10944","country_name":"Australia"},{"city_name":"Parramatta","country_code":"AU","latitude":"-33.8178","longitude":"151.00348","country_name":"Australia"},{"city_name":"Ferntree Gully","country_code":"AU","latitude":"-37.88461","longitude":"145.29539","country_name":"Australia"},{"city_name":"Adelaide Hills","country_code":"AU","latitude":"-34.91119","longitude":"138.70735","country_name":"Australia"},{"city_name":"Canning Vale","country_code":"AU","latitude":"-32.05799","longitude":"115.91814","country_name":"Australia"},{"city_name":"Glenmore Park","country_code":"AU","latitude":"-33.79068","longitude":"150.6693","country_name":"Australia"},{"city_name":"Southbank","country_code":"AU","latitude":"-37.8228","longitude":"144.96434","country_name":"Australia"},{"city_name":"Balwyn North","country_code":"AU","latitude":"-37.79086","longitude":"145.09386","country_name":"Australia"},{"city_name":"Malvern East","country_code":"AU","latitude":"-37.87397","longitude":"145.04253","country_name":"Australia"},{"city_name":"St Albans","country_code":"AU","latitude":"-37.74496","longitude":"144.80049","country_name":"Australia"},{"city_name":"Endeavour Hills","country_code":"AU","latitude":"-37.97695","longitude":"145.25866","country_name":"Australia"},{"city_name":"Kellyville","country_code":"AU","latitude":"-33.71028","longitude":"150.95095","country_name":"Australia"},{"city_name":"Roxburgh Park","country_code":"AU","latitude":"-37.62581","longitude":"144.92555","country_name":"Australia"},{"city_name":"Wyndham Vale","country_code":"AU","latitude":"-37.89138","longitude":"144.62368","country_name":"Australia"},{"city_name":"Cabramatta","country_code":"AU","latitude":"-33.89743","longitude":"150.93446","country_name":"Australia"},{"city_name":"Campsie","country_code":"AU","latitude":"-33.9125","longitude":"151.10279","country_name":"Australia"},{"city_name":"Greenacre","country_code":"AU","latitude":"-33.90034","longitude":"151.05563","country_name":"Australia"},{"city_name":"Greystanes","country_code":"AU","latitude":"-33.82346","longitude":"150.94607","country_name":"Australia"},{"city_name":"Ellenbrook","country_code":"AU","latitude":"-31.76737","longitude":"115.96936","country_name":"Australia"},{"city_name":"Robina","country_code":"AU","latitude":"-28.07071","longitude":"153.39329","country_name":"Australia"},{"city_name":"Baldivis","country_code":"AU","latitude":"-32.32889","longitude":"115.83047","country_name":"Australia"},{"city_name":"Dianella","country_code":"AU","latitude":"-31.88822","longitude":"115.87186","country_name":"Australia"},{"city_name":"Morley","country_code":"AU","latitude":"-31.88775","longitude":"115.9099","country_name":"Australia"},{"city_name":"Thornlie","country_code":"AU","latitude":"-32.06003","longitude":"115.955","country_name":"Australia"},{"city_name":"Punchbowl","country_code":"AU","latitude":"-33.92893","longitude":"151.05111","country_name":"Australia"},{"city_name":"Kirwan","country_code":"AU","latitude":"-19.30323","longitude":"146.72531","country_name":"Australia"},{"city_name":"Bundoora","country_code":"AU","latitude":"-37.69825","longitude":"145.05967","country_name":"Australia"},{"city_name":"Forest Lake","country_code":"AU","latitude":"-27.62563","longitude":"152.96883","country_name":"Australia"},{"city_name":"Narre Warren South","country_code":"AU","latitude":"-38.04369","longitude":"145.2923","country_name":"Australia"},{"city_name":"Dandenong North","country_code":"AU","latitude":"-37.96649","longitude":"145.2081","country_name":"Australia"},{"city_name":"Hurstville","country_code":"AU","latitude":"-33.9677","longitude":"151.10149","country_name":"Australia"},{"city_name":"Melbourne City Centre","country_code":"AU","latitude":"-37.81501","longitude":"144.96657","country_name":"Australia"},{"city_name":"Tanki Leendert","country_code":"AW","latitude":"12.53914","longitude":"-70.02004","country_name":"Aruba"},{"city_name":"Oranjestad","country_code":"AW","latitude":"12.52398","longitude":"-70.02703","country_name":"Aruba"},{"city_name":"Xankandi","country_code":"AZ","latitude":"39.8177","longitude":"46.7528","country_name":"Azerbaijan"},{"city_name":"Salyan","country_code":"AZ","latitude":"39.59621","longitude":"48.98479","country_name":"Azerbaijan"},{"city_name":"Saatlı","country_code":"AZ","latitude":"39.93214","longitude":"48.36892","country_name":"Azerbaijan"},{"city_name":"Nakhchivan","country_code":"AZ","latitude":"39.20889","longitude":"45.41222","country_name":"Azerbaijan"},{"city_name":"Lankaran","country_code":"AZ","latitude":"38.75428","longitude":"48.85062","country_name":"Azerbaijan"},{"city_name":"Imishli","country_code":"AZ","latitude":"39.87095","longitude":"48.05995","country_name":"Azerbaijan"},{"city_name":"Fizuli","country_code":"AZ","latitude":"39.60094","longitude":"47.14529","country_name":"Azerbaijan"},{"city_name":"Jalilabad","country_code":"AZ","latitude":"39.20963","longitude":"48.49186","country_name":"Azerbaijan"},{"city_name":"Şirvan","country_code":"AZ","latitude":"39.93778","longitude":"48.929","country_name":"Azerbaijan"},{"city_name":"Ağdam","country_code":"AZ","latitude":"39.99096","longitude":"46.92736","country_name":"Azerbaijan"},{"city_name":"Zabrat","country_code":"AZ","latitude":"40.47746","longitude":"49.94174","country_name":"Azerbaijan"},{"city_name":"Yevlakh","country_code":"AZ","latitude":"40.61832","longitude":"47.15014","country_name":"Azerbaijan"},{"city_name":"Xaçmaz","country_code":"AZ","latitude":"41.46426","longitude":"48.80565","country_name":"Azerbaijan"},{"city_name":"Sumqayıt","country_code":"AZ","latitude":"40.58972","longitude":"49.66861","country_name":"Azerbaijan"},{"city_name":"Qaraçuxur","country_code":"AZ","latitude":"40.39667","longitude":"49.97361","country_name":"Azerbaijan"},{"city_name":"Shamkhor","country_code":"AZ","latitude":"40.82975","longitude":"46.0178","country_name":"Azerbaijan"},{"city_name":"Shamakhi","country_code":"AZ","latitude":"40.63141","longitude":"48.64137","country_name":"Azerbaijan"},{"city_name":"Sheki","country_code":"AZ","latitude":"41.19194","longitude":"47.17056","country_name":"Azerbaijan"},{"city_name":"Sabunçu","country_code":"AZ","latitude":"40.4425","longitude":"49.94806","country_name":"Azerbaijan"},{"city_name":"Sabirabad","country_code":"AZ","latitude":"40.00869","longitude":"48.47701","country_name":"Azerbaijan"},{"city_name":"Quba","country_code":"AZ","latitude":"41.36108","longitude":"48.51341","country_name":"Azerbaijan"},{"city_name":"Hacıqabul","country_code":"AZ","latitude":"40.03874","longitude":"48.94286","country_name":"Azerbaijan"},{"city_name":"Mingelchaur","country_code":"AZ","latitude":"40.76395","longitude":"47.05953","country_name":"Azerbaijan"},{"city_name":"Maştağa","country_code":"AZ","latitude":"40.52983","longitude":"50.00616","country_name":"Azerbaijan"},{"city_name":"Lökbatan","country_code":"AZ","latitude":"40.3256","longitude":"49.73376","country_name":"Azerbaijan"},{"city_name":"Khirdalan","country_code":"AZ","latitude":"40.44808","longitude":"49.75502","country_name":"Azerbaijan"},{"city_name":"Geoktschai","country_code":"AZ","latitude":"40.65055","longitude":"47.74219","country_name":"Azerbaijan"},{"city_name":"Hövsan","country_code":"AZ","latitude":"40.37444","longitude":"50.08528","country_name":"Azerbaijan"},{"city_name":"Ganja","country_code":"AZ","latitude":"40.68278","longitude":"46.36056","country_name":"Azerbaijan"},{"city_name":"Divichibazar","country_code":"AZ","latitude":"41.20117","longitude":"48.98712","country_name":"Azerbaijan"},{"city_name":"Buzovna","country_code":"AZ","latitude":"40.51903","longitude":"50.11438","country_name":"Azerbaijan"},{"city_name":"Biny Selo","country_code":"AZ","latitude":"40.45076","longitude":"50.08686","country_name":"Azerbaijan"},{"city_name":"Barda","country_code":"AZ","latitude":"40.37577","longitude":"47.12619","country_name":"Azerbaijan"},{"city_name":"Bilajari","country_code":"AZ","latitude":"40.4444","longitude":"49.80566","country_name":"Azerbaijan"},{"city_name":"Baku","country_code":"AZ","latitude":"40.37767","longitude":"49.89201","country_name":"Azerbaijan"},{"city_name":"Amirdzhan","country_code":"AZ","latitude":"40.42639","longitude":"49.98361","country_name":"Azerbaijan"},{"city_name":"Ağdaş","country_code":"AZ","latitude":"40.64699","longitude":"47.4738","country_name":"Azerbaijan"},{"city_name":"Agdzhabedy","country_code":"AZ","latitude":"40.05015","longitude":"47.45937","country_name":"Azerbaijan"},{"city_name":"Bakıxanov","country_code":"AZ","latitude":"40.41894","longitude":"49.96693","country_name":"Azerbaijan"},{"city_name":"Zenica","country_code":"BA","latitude":"44.20169","longitude":"17.90397","country_name":"Bosnia and Herzegovina"},{"city_name":"Tuzla","country_code":"BA","latitude":"44.53842","longitude":"18.66709","country_name":"Bosnia and Herzegovina"},{"city_name":"Trebinje","country_code":"BA","latitude":"42.71197","longitude":"18.34362","country_name":"Bosnia and Herzegovina"},{"city_name":"Travnik","country_code":"BA","latitude":"44.22637","longitude":"17.66583","country_name":"Bosnia and Herzegovina"},{"city_name":"Sarajevo","country_code":"BA","latitude":"43.84864","longitude":"18.35644","country_name":"Bosnia and Herzegovina"},{"city_name":"Prijedor","country_code":"BA","latitude":"44.97991","longitude":"16.71401","country_name":"Bosnia and Herzegovina"},{"city_name":"Mostar","country_code":"BA","latitude":"43.34333","longitude":"17.80806","country_name":"Bosnia and Herzegovina"},{"city_name":"Doboj","country_code":"BA","latitude":"44.73179","longitude":"18.08698","country_name":"Bosnia and Herzegovina"},{"city_name":"Cazin","country_code":"BA","latitude":"44.96694","longitude":"15.94306","country_name":"Bosnia and Herzegovina"},{"city_name":"Bugojno","country_code":"BA","latitude":"44.05722","longitude":"17.45083","country_name":"Bosnia and Herzegovina"},{"city_name":"Brčko","country_code":"BA","latitude":"44.86995","longitude":"18.81012","country_name":"Bosnia and Herzegovina"},{"city_name":"Bijeljina","country_code":"BA","latitude":"44.75874","longitude":"19.21437","country_name":"Bosnia and Herzegovina"},{"city_name":"Bihać","country_code":"BA","latitude":"44.81694","longitude":"15.87083","country_name":"Bosnia and Herzegovina"},{"city_name":"Banja Luka","country_code":"BA","latitude":"44.77842","longitude":"17.19386","country_name":"Bosnia and Herzegovina"},{"city_name":"Bridgetown","country_code":"BB","latitude":"13.10732","longitude":"-59.62021","country_name":"Barbados"},{"city_name":"Thākurgaon","country_code":"BD","latitude":"26.03097","longitude":"88.46989","country_name":"Bangladesh"},{"city_name":"Teknāf","country_code":"BD","latitude":"20.85829","longitude":"92.29773","country_name":"Bangladesh"},{"city_name":"Tungi","country_code":"BD","latitude":"23.89154","longitude":"90.40232","country_name":"Bangladesh"},{"city_name":"Sylhet","country_code":"BD","latitude":"24.89904","longitude":"91.87198","country_name":"Bangladesh"},{"city_name":"Dohār","country_code":"BD","latitude":"23.59311","longitude":"90.14251","country_name":"Bangladesh"},{"city_name":"Jamālpur","country_code":"BD","latitude":"24.91965","longitude":"89.94812","country_name":"Bangladesh"},{"city_name":"Shibganj","country_code":"BD","latitude":"25.00146","longitude":"89.32266","country_name":"Bangladesh"},{"city_name":"Shibganj","country_code":"BD","latitude":"24.68501","longitude":"88.15638","country_name":"Bangladesh"},{"city_name":"Sātkhira","country_code":"BD","latitude":"22.70817","longitude":"89.07185","country_name":"Bangladesh"},{"city_name":"Sirajganj","country_code":"BD","latitude":"24.45771","longitude":"89.70802","country_name":"Bangladesh"},{"city_name":"Netrakona","country_code":"BD","latitude":"24.88352","longitude":"90.72898","country_name":"Bangladesh"},{"city_name":"Narsingdi","country_code":"BD","latitude":"23.92298","longitude":"90.71768","country_name":"Bangladesh"},{"city_name":"Sandwīp","country_code":"BD","latitude":"22.51409","longitude":"91.45491","country_name":"Bangladesh"},{"city_name":"Shāhzādpur","country_code":"BD","latitude":"24.17687","longitude":"89.5988","country_name":"Bangladesh"},{"city_name":"Rāmganj","country_code":"BD","latitude":"23.1006","longitude":"90.84989","country_name":"Bangladesh"},{"city_name":"Rājshāhi","country_code":"BD","latitude":"24.374","longitude":"88.60114","country_name":"Bangladesh"},{"city_name":"Pirojpur","country_code":"BD","latitude":"22.57965","longitude":"89.97521","country_name":"Bangladesh"},{"city_name":"Panchagarh","country_code":"BD","latitude":"26.33338","longitude":"88.55777","country_name":"Bangladesh"},{"city_name":"Patiya","country_code":"BD","latitude":"22.29543","longitude":"91.979","country_name":"Bangladesh"},{"city_name":"Parbatipur","country_code":"BD","latitude":"25.66369","longitude":"88.93093","country_name":"Bangladesh"},{"city_name":"Nārāyanganj","country_code":"BD","latitude":"23.61352","longitude":"90.50298","country_name":"Bangladesh"},{"city_name":"Nālchiti","country_code":"BD","latitude":"22.63696","longitude":"90.27195","country_name":"Bangladesh"},{"city_name":"Nāgarpur","country_code":"BD","latitude":"24.05783","longitude":"89.87696","country_name":"Bangladesh"},{"city_name":"Nageswari","country_code":"BD","latitude":"25.96817","longitude":"89.69153","country_name":"Bangladesh"},{"city_name":"Mymensingh","country_code":"BD","latitude":"24.75636","longitude":"90.40646","country_name":"Bangladesh"},{"city_name":"Muktāgācha","country_code":"BD","latitude":"24.76484","longitude":"90.25698","country_name":"Bangladesh"},{"city_name":"Mirzāpur","country_code":"BD","latitude":"24.10287","longitude":"90.09841","country_name":"Bangladesh"},{"city_name":"Maulavi Bāzār","country_code":"BD","latitude":"24.48888","longitude":"91.77075","country_name":"Bangladesh"},{"city_name":"Morrelgonj","country_code":"BD","latitude":"22.45566","longitude":"89.85584","country_name":"Bangladesh"},{"city_name":"Mehendiganj","country_code":"BD","latitude":"22.82257","longitude":"90.52859","country_name":"Bangladesh"},{"city_name":"Mathba","country_code":"BD","latitude":"22.28616","longitude":"89.95883","country_name":"Bangladesh"},{"city_name":"Lalmonirhat","country_code":"BD","latitude":"25.91719","longitude":"89.44595","country_name":"Bangladesh"},{"city_name":"Lākshām","country_code":"BD","latitude":"23.24018","longitude":"91.12143","country_name":"Bangladesh"},{"city_name":"Comilla","country_code":"BD","latitude":"23.46186","longitude":"91.18503","country_name":"Bangladesh"},{"city_name":"Rangpur","country_code":"BD","latitude":"25.74664","longitude":"89.25166","country_name":"Bangladesh"},{"city_name":"Kushtia","country_code":"BD","latitude":"23.9028","longitude":"89.11943","country_name":"Bangladesh"},{"city_name":"Kālīganj","country_code":"BD","latitude":"23.40964","longitude":"89.13801","country_name":"Bangladesh"},{"city_name":"Jhingergācha","country_code":"BD","latitude":"23.11134","longitude":"89.09061","country_name":"Bangladesh"},{"city_name":"Joypur Hāt","country_code":"BD","latitude":"25.10147","longitude":"89.02734","country_name":"Bangladesh"},{"city_name":"Ishurdi","country_code":"BD","latitude":"24.12858","longitude":"89.06573","country_name":"Bangladesh"},{"city_name":"Habiganj","country_code":"BD","latitude":"24.38044","longitude":"91.41299","country_name":"Bangladesh"},{"city_name":"Gaurnadi","country_code":"BD","latitude":"22.97372","longitude":"90.22376","country_name":"Bangladesh"},{"city_name":"Gafargaon","country_code":"BD","latitude":"24.432","longitude":"90.5585","country_name":"Bangladesh"},{"city_name":"Feni","country_code":"BD","latitude":"23.0144","longitude":"91.3966","country_name":"Bangladesh"},{"city_name":"Rāipur","country_code":"BD","latitude":"23.0391","longitude":"90.76808","country_name":"Bangladesh"},{"city_name":"Sarankhola","country_code":"BD","latitude":"22.31006","longitude":"89.79113","country_name":"Bangladesh"},{"city_name":"Dhaka","country_code":"BD","latitude":"23.7104","longitude":"90.40744","country_name":"Bangladesh"},{"city_name":"Chilmāri","country_code":"BD","latitude":"25.55613","longitude":"89.67097","country_name":"Bangladesh"},{"city_name":"Chhāgalnāiya","country_code":"BD","latitude":"23.02475","longitude":"91.51091","country_name":"Bangladesh"},{"city_name":"Lālmohan","country_code":"BD","latitude":"22.33774","longitude":"90.73708","country_name":"Bangladesh"},{"city_name":"Khagrachhari","country_code":"BD","latitude":"23.10787","longitude":"91.97007","country_name":"Bangladesh"},{"city_name":"Chhātak","country_code":"BD","latitude":"25.03852","longitude":"91.66958","country_name":"Bangladesh"},{"city_name":"Bhātpāra Abhaynagar","country_code":"BD","latitude":"23.01472","longitude":"89.43936","country_name":"Bangladesh"},{"city_name":"Bherāmāra","country_code":"BD","latitude":"24.02452","longitude":"88.99234","country_name":"Bangladesh"},{"city_name":"Bhairab Bāzār","country_code":"BD","latitude":"24.0524","longitude":"90.9764","country_name":"Bangladesh"},{"city_name":"Bāndarban","country_code":"BD","latitude":"22.19534","longitude":"92.21946","country_name":"Bangladesh"},{"city_name":"Kālia","country_code":"BD","latitude":"23.043","longitude":"89.63094","country_name":"Bangladesh"},{"city_name":"Baniachang","country_code":"BD","latitude":"24.51863","longitude":"91.35787","country_name":"Bangladesh"},{"city_name":"Bājitpur","country_code":"BD","latitude":"24.21623","longitude":"90.95002","country_name":"Bangladesh"},{"city_name":"Bagerhat","country_code":"BD","latitude":"22.65657","longitude":"89.79123","country_name":"Bangladesh"},{"city_name":"Badarganj","country_code":"BD","latitude":"25.67419","longitude":"89.05377","country_name":"Bangladesh"},{"city_name":"Narail","country_code":"BD","latitude":"23.15509","longitude":"89.49515","country_name":"Bangladesh"},{"city_name":"Tungipāra","country_code":"BD","latitude":"22.89983","longitude":"89.90326","country_name":"Bangladesh"},{"city_name":"Sonārgaon","country_code":"BD","latitude":"23.65","longitude":"90.61667","country_name":"Bangladesh"},{"city_name":"Sarishābāri","country_code":"BD","latitude":"24.75127","longitude":"89.83126","country_name":"Bangladesh"},{"city_name":"Sakhipur","country_code":"BD","latitude":"24.31988","longitude":"90.16943","country_name":"Bangladesh"},{"city_name":"Raojān","country_code":"BD","latitude":"22.53511","longitude":"91.91919","country_name":"Bangladesh"},{"city_name":"Phultala","country_code":"BD","latitude":"22.71673","longitude":"89.51194","country_name":"Bangladesh"},{"city_name":"Pālang","country_code":"BD","latitude":"23.21824","longitude":"90.35076","country_name":"Bangladesh"},{"city_name":"Pār Naogaon","country_code":"BD","latitude":"24.80418","longitude":"88.94875","country_name":"Bangladesh"},{"city_name":"Nabīnagar","country_code":"BD","latitude":"23.88791","longitude":"90.96792","country_name":"Bangladesh"},{"city_name":"Lakshmīpur","country_code":"BD","latitude":"22.9443","longitude":"90.83005","country_name":"Bangladesh"},{"city_name":"Kesabpur","country_code":"BD","latitude":"22.90725","longitude":"89.21954","country_name":"Bangladesh"},{"city_name":"Hājīganj","country_code":"BD","latitude":"23.25191","longitude":"90.85508","country_name":"Bangladesh"},{"city_name":"Farīdpur","country_code":"BD","latitude":"23.60612","longitude":"89.84064","country_name":"Bangladesh"},{"city_name":"Dinājpur","country_code":"BD","latitude":"25.62745","longitude":"88.63779","country_name":"Bangladesh"},{"city_name":"Uttar Char Fasson","country_code":"BD","latitude":"22.22647","longitude":"90.71275","country_name":"Bangladesh"},{"city_name":"Chittagong","country_code":"BD","latitude":"22.3384","longitude":"91.83168","country_name":"Bangladesh"},{"city_name":"Char Bhadrāsan","country_code":"BD","latitude":"23.30916","longitude":"90.22698","country_name":"Bangladesh"},{"city_name":"Bera","country_code":"BD","latitude":"24.07821","longitude":"89.63262","country_name":"Bangladesh"},{"city_name":"Burhānuddin","country_code":"BD","latitude":"22.49518","longitude":"90.72391","country_name":"Bangladesh"},{"city_name":"Sātkania","country_code":"BD","latitude":"22.07639","longitude":"92.04955","country_name":"Bangladesh"},{"city_name":"Cox’s Bāzār","country_code":"BD","latitude":"21.43973","longitude":"92.00955","country_name":"Bangladesh"},{"city_name":"Khulna","country_code":"BD","latitude":"22.80979","longitude":"89.56439","country_name":"Bangladesh"},{"city_name":"Bhola","country_code":"BD","latitude":"22.68759","longitude":"90.64403","country_name":"Bangladesh"},{"city_name":"Barisāl","country_code":"BD","latitude":"22.70497","longitude":"90.37013","country_name":"Bangladesh"},{"city_name":"Jessore","country_code":"BD","latitude":"23.16971","longitude":"89.21371","country_name":"Bangladesh"},{"city_name":"Pābna","country_code":"BD","latitude":"24.00644","longitude":"89.2372","country_name":"Bangladesh"},{"city_name":"Tāngāil","country_code":"BD","latitude":"24.24984","longitude":"89.91655","country_name":"Bangladesh"},{"city_name":"Bogra","country_code":"BD","latitude":"24.85098","longitude":"89.37108","country_name":"Bangladesh"},{"city_name":"Pīrgaaj","country_code":"BD","latitude":"25.85587","longitude":"88.35943","country_name":"Bangladesh"},{"city_name":"Nawābganj","country_code":"BD","latitude":"24.59025","longitude":"88.27444","country_name":"Bangladesh"},{"city_name":"Mādārīpur","country_code":"BD","latitude":"23.17097","longitude":"90.20935","country_name":"Bangladesh"},{"city_name":"Sherpur","country_code":"BD","latitude":"25.01881","longitude":"90.01751","country_name":"Bangladesh"},{"city_name":"Kishorganj","country_code":"BD","latitude":"24.43944","longitude":"90.78291","country_name":"Bangladesh"},{"city_name":"Manikchari","country_code":"BD","latitude":"22.83957","longitude":"91.84128","country_name":"Bangladesh"},{"city_name":"Bhāndāria","country_code":"BD","latitude":"22.48898","longitude":"90.06273","country_name":"Bangladesh"},{"city_name":"Bibir Hat","country_code":"BD","latitude":"22.68347","longitude":"91.79058","country_name":"Bangladesh"},{"city_name":"Saidpur","country_code":"BD","latitude":"25.77769","longitude":"88.89169","country_name":"Bangladesh"},{"city_name":"Puthia","country_code":"BD","latitude":"24.36537","longitude":"88.83431","country_name":"Bangladesh"},{"city_name":"Natore","country_code":"BD","latitude":"24.41112","longitude":"88.98673","country_name":"Bangladesh"},{"city_name":"Azimpur","country_code":"BD","latitude":"23.7298","longitude":"90.3854","country_name":"Bangladesh"},{"city_name":"Paltan","country_code":"BD","latitude":"23.73625","longitude":"90.41426","country_name":"Bangladesh"},{"city_name":"Joymontop","country_code":"BD","latitude":"23.78789","longitude":"90.16472","country_name":"Bangladesh"},{"city_name":"Zwevegem","country_code":"BE","latitude":"50.81268","longitude":"3.33848","country_name":"Belgium"},{"city_name":"Zottegem","country_code":"BE","latitude":"50.86955","longitude":"3.81052","country_name":"Belgium"},{"city_name":"Zoersel","country_code":"BE","latitude":"51.26825","longitude":"4.71296","country_name":"Belgium"},{"city_name":"Zemst","country_code":"BE","latitude":"50.98318","longitude":"4.46079","country_name":"Belgium"},{"city_name":"Zele","country_code":"BE","latitude":"51.06566","longitude":"4.0403","country_name":"Belgium"},{"city_name":"Zedelgem","country_code":"BE","latitude":"51.14236","longitude":"3.1368","country_name":"Belgium"},{"city_name":"Zaventem","country_code":"BE","latitude":"50.88365","longitude":"4.47298","country_name":"Belgium"},{"city_name":"Willebroek","country_code":"BE","latitude":"51.06041","longitude":"4.36019","country_name":"Belgium"},{"city_name":"Wevelgem","country_code":"BE","latitude":"50.8","longitude":"3.16667","country_name":"Belgium"},{"city_name":"Wetteren","country_code":"BE","latitude":"51.00526","longitude":"3.88341","country_name":"Belgium"},{"city_name":"Westerlo","country_code":"BE","latitude":"51.09049","longitude":"4.91544","country_name":"Belgium"},{"city_name":"Wavre","country_code":"BE","latitude":"50.71717","longitude":"4.60138","country_name":"Belgium"},{"city_name":"Waterloo","country_code":"BE","latitude":"50.71469","longitude":"4.3991","country_name":"Belgium"},{"city_name":"Waregem","country_code":"BE","latitude":"50.88898","longitude":"3.42756","country_name":"Belgium"},{"city_name":"Vilvoorde","country_code":"BE","latitude":"50.92814","longitude":"4.42938","country_name":"Belgium"},{"city_name":"Verviers","country_code":"BE","latitude":"50.58907","longitude":"5.86241","country_name":"Belgium"},{"city_name":"Turnhout","country_code":"BE","latitude":"51.32254","longitude":"4.94471","country_name":"Belgium"},{"city_name":"Tubize","country_code":"BE","latitude":"50.69059","longitude":"4.2009","country_name":"Belgium"},{"city_name":"Tournai","country_code":"BE","latitude":"50.60715","longitude":"3.38932","country_name":"Belgium"},{"city_name":"Tongeren","country_code":"BE","latitude":"50.78054","longitude":"5.46484","country_name":"Belgium"},{"city_name":"Tienen","country_code":"BE","latitude":"50.80745","longitude":"4.9378","country_name":"Belgium"},{"city_name":"Tervuren","country_code":"BE","latitude":"50.82372","longitude":"4.51418","country_name":"Belgium"},{"city_name":"Temse","country_code":"BE","latitude":"51.12794","longitude":"4.21372","country_name":"Belgium"},{"city_name":"Soignies","country_code":"BE","latitude":"50.57904","longitude":"4.07129","country_name":"Belgium"},{"city_name":"Sint-Truiden","country_code":"BE","latitude":"50.81679","longitude":"5.18647","country_name":"Belgium"},{"city_name":"Sint-Pieters-Leeuw","country_code":"BE","latitude":"50.77926","longitude":"4.24355","country_name":"Belgium"},{"city_name":"Sint-Niklaas","country_code":"BE","latitude":"51.16509","longitude":"4.1437","country_name":"Belgium"},{"city_name":"Seraing","country_code":"BE","latitude":"50.58362","longitude":"5.50115","country_name":"Belgium"},{"city_name":"Schoten","country_code":"BE","latitude":"51.25251","longitude":"4.50268","country_name":"Belgium"},{"city_name":"Schilde","country_code":"BE","latitude":"51.24107","longitude":"4.58336","country_name":"Belgium"},{"city_name":"Saint-Nicolas","country_code":"BE","latitude":"50.62837","longitude":"5.53243","country_name":"Belgium"},{"city_name":"Saint-Ghislain","country_code":"BE","latitude":"50.44816","longitude":"3.81886","country_name":"Belgium"},{"city_name":"Ronse","country_code":"BE","latitude":"50.74574","longitude":"3.6005","country_name":"Belgium"},{"city_name":"Roeselare","country_code":"BE","latitude":"50.94653","longitude":"3.12269","country_name":"Belgium"},{"city_name":"Rixensart","country_code":"BE","latitude":"50.71229","longitude":"4.52529","country_name":"Belgium"},{"city_name":"Overijse","country_code":"BE","latitude":"50.77436","longitude":"4.53461","country_name":"Belgium"},{"city_name":"Oupeye","country_code":"BE","latitude":"50.71184","longitude":"5.6468","country_name":"Belgium"},{"city_name":"Oudenaarde","country_code":"BE","latitude":"50.85168","longitude":"3.60891","country_name":"Belgium"},{"city_name":"Oostkamp","country_code":"BE","latitude":"51.15432","longitude":"3.23128","country_name":"Belgium"},{"city_name":"Ostend","country_code":"BE","latitude":"51.21551","longitude":"2.927","country_name":"Belgium"},{"city_name":"Nivelles","country_code":"BE","latitude":"50.59833","longitude":"4.32848","country_name":"Belgium"},{"city_name":"Ninove","country_code":"BE","latitude":"50.82776","longitude":"4.02657","country_name":"Belgium"},{"city_name":"Nijlen","country_code":"BE","latitude":"51.16096","longitude":"4.67008","country_name":"Belgium"},{"city_name":"Namur","country_code":"BE","latitude":"50.4669","longitude":"4.86746","country_name":"Belgium"},{"city_name":"Mouscron","country_code":"BE","latitude":"50.74497","longitude":"3.20639","country_name":"Belgium"},{"city_name":"Mortsel","country_code":"BE","latitude":"51.16697","longitude":"4.45127","country_name":"Belgium"},{"city_name":"Mons","country_code":"BE","latitude":"50.45413","longitude":"3.95229","country_name":"Belgium"},{"city_name":"Mol","country_code":"BE","latitude":"51.19188","longitude":"5.11662","country_name":"Belgium"},{"city_name":"Merelbeke","country_code":"BE","latitude":"50.99447","longitude":"3.74621","country_name":"Belgium"},{"city_name":"Menen","country_code":"BE","latitude":"50.79722","longitude":"3.12245","country_name":"Belgium"},{"city_name":"Mechelen","country_code":"BE","latitude":"51.02574","longitude":"4.47762","country_name":"Belgium"},{"city_name":"Manage","country_code":"BE","latitude":"50.50312","longitude":"4.23589","country_name":"Belgium"},{"city_name":"Maldegem","country_code":"BE","latitude":"51.20737","longitude":"3.44511","country_name":"Belgium"},{"city_name":"Maasmechelen","country_code":"BE","latitude":"50.96545","longitude":"5.69452","country_name":"Belgium"},{"city_name":"Maaseik","country_code":"BE","latitude":"51.09802","longitude":"5.78379","country_name":"Belgium"},{"city_name":"Louvain-la-Neuve","country_code":"BE","latitude":"50.66829","longitude":"4.61443","country_name":"Belgium"},{"city_name":"Lommel","country_code":"BE","latitude":"51.23074","longitude":"5.31349","country_name":"Belgium"},{"city_name":"Lokeren","country_code":"BE","latitude":"51.10364","longitude":"3.99339","country_name":"Belgium"},{"city_name":"Lier","country_code":"BE","latitude":"51.13128","longitude":"4.57041","country_name":"Belgium"},{"city_name":"Liège","country_code":"BE","latitude":"50.63373","longitude":"5.56749","country_name":"Belgium"},{"city_name":"Leuven","country_code":"BE","latitude":"50.87959","longitude":"4.70093","country_name":"Belgium"},{"city_name":"Lanaken","country_code":"BE","latitude":"50.89318","longitude":"5.6468","country_name":"Belgium"},{"city_name":"La Louvière","country_code":"BE","latitude":"50.48657","longitude":"4.18785","country_name":"Belgium"},{"city_name":"Kortrijk","country_code":"BE","latitude":"50.82803","longitude":"3.26487","country_name":"Belgium"},{"city_name":"Kontich","country_code":"BE","latitude":"51.13213","longitude":"4.44706","country_name":"Belgium"},{"city_name":"Koksijde","country_code":"BE","latitude":"51.11642","longitude":"2.63772","country_name":"Belgium"},{"city_name":"Knokke-Heist","country_code":"BE","latitude":"51.35","longitude":"3.26667","country_name":"Belgium"},{"city_name":"Kapellen","country_code":"BE","latitude":"51.31377","longitude":"4.43539","country_name":"Belgium"},{"city_name":"Izegem","country_code":"BE","latitude":"50.91396","longitude":"3.21378","country_name":"Belgium"},{"city_name":"Ieper","country_code":"BE","latitude":"50.85114","longitude":"2.88569","country_name":"Belgium"},{"city_name":"Houthalen","country_code":"BE","latitude":"51.03427","longitude":"5.37429","country_name":"Belgium"},{"city_name":"Hoboken","country_code":"BE","latitude":"51.17611","longitude":"4.34844","country_name":"Belgium"},{"city_name":"Heusden","country_code":"BE","latitude":"51.03664","longitude":"5.28013","country_name":"Belgium"},{"city_name":"Herstal","country_code":"BE","latitude":"50.66415","longitude":"5.62346","country_name":"Belgium"},{"city_name":"Herentals","country_code":"BE","latitude":"51.17655","longitude":"4.83248","country_name":"Belgium"},{"city_name":"Helchteren","country_code":"BE","latitude":"51.05591","longitude":"5.38244","country_name":"Belgium"},{"city_name":"Heist-op-den-Berg","country_code":"BE","latitude":"51.07537","longitude":"4.72827","country_name":"Belgium"},{"city_name":"Hasselt","country_code":"BE","latitude":"50.93106","longitude":"5.33781","country_name":"Belgium"},{"city_name":"Harelbeke","country_code":"BE","latitude":"50.85343","longitude":"3.30935","country_name":"Belgium"},{"city_name":"Hamme","country_code":"BE","latitude":"51.09822","longitude":"4.13705","country_name":"Belgium"},{"city_name":"Halle","country_code":"BE","latitude":"50.73385","longitude":"4.23454","country_name":"Belgium"},{"city_name":"Grimbergen","country_code":"BE","latitude":"50.93409","longitude":"4.37213","country_name":"Belgium"},{"city_name":"Geraardsbergen","country_code":"BE","latitude":"50.77343","longitude":"3.88223","country_name":"Belgium"},{"city_name":"Gent","country_code":"BE","latitude":"51.05","longitude":"3.71667","country_name":"Belgium"},{"city_name":"Genk","country_code":"BE","latitude":"50.965","longitude":"5.50082","country_name":"Belgium"},{"city_name":"Gembloux","country_code":"BE","latitude":"50.56149","longitude":"4.69889","country_name":"Belgium"},{"city_name":"Geel","country_code":"BE","latitude":"51.16557","longitude":"4.98917","country_name":"Belgium"},{"city_name":"Frameries","country_code":"BE","latitude":"50.40578","longitude":"3.89603","country_name":"Belgium"},{"city_name":"Fleurus","country_code":"BE","latitude":"50.48351","longitude":"4.55006","country_name":"Belgium"},{"city_name":"Flémalle-Haute","country_code":"BE","latitude":"50.59994","longitude":"5.44471","country_name":"Belgium"},{"city_name":"Evergem","country_code":"BE","latitude":"51.11306","longitude":"3.70976","country_name":"Belgium"},{"city_name":"Edegem","country_code":"BE","latitude":"51.15662","longitude":"4.44504","country_name":"Belgium"},{"city_name":"Dilbeek","country_code":"BE","latitude":"50.84799","longitude":"4.25972","country_name":"Belgium"},{"city_name":"Diest","country_code":"BE","latitude":"50.98923","longitude":"5.05062","country_name":"Belgium"},{"city_name":"Deurne","country_code":"BE","latitude":"51.22134","longitude":"4.46595","country_name":"Belgium"},{"city_name":"Dendermonde","country_code":"BE","latitude":"51.02869","longitude":"4.10106","country_name":"Belgium"},{"city_name":"Deinze","country_code":"BE","latitude":"50.98175","longitude":"3.53096","country_name":"Belgium"},{"city_name":"Courcelles","country_code":"BE","latitude":"50.46379","longitude":"4.3747","country_name":"Belgium"},{"city_name":"Chaudfontaine","country_code":"BE","latitude":"50.5828","longitude":"5.6341","country_name":"Belgium"},{"city_name":"Châtelet","country_code":"BE","latitude":"50.40338","longitude":"4.52826","country_name":"Belgium"},{"city_name":"Charleroi","country_code":"BE","latitude":"50.41136","longitude":"4.44448","country_name":"Belgium"},{"city_name":"Brussels","country_code":"BE","latitude":"50.85045","longitude":"4.34878","country_name":"Belgium"},{"city_name":"Brugge","country_code":"BE","latitude":"51.20892","longitude":"3.22424","country_name":"Belgium"},{"city_name":"Brecht","country_code":"BE","latitude":"51.35024","longitude":"4.63829","country_name":"Belgium"},{"city_name":"Brasschaat","country_code":"BE","latitude":"51.2912","longitude":"4.49182","country_name":"Belgium"},{"city_name":"Braine-le-Comte","country_code":"BE","latitude":"50.60979","longitude":"4.14658","country_name":"Belgium"},{"city_name":"Braine-l'Alleud","country_code":"BE","latitude":"50.68363","longitude":"4.36784","country_name":"Belgium"},{"city_name":"Boussu","country_code":"BE","latitude":"50.43417","longitude":"3.7944","country_name":"Belgium"},{"city_name":"Binche","country_code":"BE","latitude":"50.41155","longitude":"4.16469","country_name":"Belgium"},{"city_name":"Bilzen","country_code":"BE","latitude":"50.87325","longitude":"5.5184","country_name":"Belgium"},{"city_name":"Beveren","country_code":"BE","latitude":"51.21187","longitude":"4.25633","country_name":"Belgium"},{"city_name":"Beringen","country_code":"BE","latitude":"51.04954","longitude":"5.22606","country_name":"Belgium"},{"city_name":"Beersel","country_code":"BE","latitude":"50.76589","longitude":"4.3002","country_name":"Belgium"},{"city_name":"Ath","country_code":"BE","latitude":"50.62937","longitude":"3.77801","country_name":"Belgium"},{"city_name":"Asse","country_code":"BE","latitude":"50.91011","longitude":"4.19836","country_name":"Belgium"},{"city_name":"Arlon","country_code":"BE","latitude":"49.68333","longitude":"5.81667","country_name":"Belgium"},{"city_name":"Antwerpen","country_code":"BE","latitude":"51.22047","longitude":"4.40026","country_name":"Belgium"},{"city_name":"Ans","country_code":"BE","latitude":"50.6623","longitude":"5.52029","country_name":"Belgium"},{"city_name":"Andenne","country_code":"BE","latitude":"50.48941","longitude":"5.09513","country_name":"Belgium"},{"city_name":"Aarschot","country_code":"BE","latitude":"50.98715","longitude":"4.83695","country_name":"Belgium"},{"city_name":"Aalst","country_code":"BE","latitude":"50.93604","longitude":"4.0355","country_name":"Belgium"},{"city_name":"Zorgo","country_code":"BF","latitude":"12.24922","longitude":"-0.61527","country_name":"Burkina Faso"},{"city_name":"Yako","country_code":"BF","latitude":"12.9591","longitude":"-2.26075","country_name":"Burkina Faso"},{"city_name":"Tenkodogo","country_code":"BF","latitude":"11.78","longitude":"-0.36972","country_name":"Burkina Faso"},{"city_name":"Réo","country_code":"BF","latitude":"12.31963","longitude":"-2.47094","country_name":"Burkina Faso"},{"city_name":"Ouahigouya","country_code":"BF","latitude":"13.58278","longitude":"-2.42158","country_name":"Burkina Faso"},{"city_name":"Ouagadougou","country_code":"BF","latitude":"12.36566","longitude":"-1.53388","country_name":"Burkina Faso"},{"city_name":"Nouna","country_code":"BF","latitude":"12.72939","longitude":"-3.86305","country_name":"Burkina Faso"},{"city_name":"Léo","country_code":"BF","latitude":"11.10033","longitude":"-2.10654","country_name":"Burkina Faso"},{"city_name":"Koupéla","country_code":"BF","latitude":"12.17864","longitude":"-0.35103","country_name":"Burkina Faso"},{"city_name":"Koudougou","country_code":"BF","latitude":"12.25263","longitude":"-2.36272","country_name":"Burkina Faso"},{"city_name":"Kongoussi","country_code":"BF","latitude":"13.32583","longitude":"-1.53472","country_name":"Burkina Faso"},{"city_name":"Kombissiri","country_code":"BF","latitude":"12.06884","longitude":"-1.33644","country_name":"Burkina Faso"},{"city_name":"Kokologo","country_code":"BF","latitude":"12.19392","longitude":"-1.87687","country_name":"Burkina Faso"},{"city_name":"Kaya","country_code":"BF","latitude":"13.09167","longitude":"-1.08444","country_name":"Burkina Faso"},{"city_name":"Houndé","country_code":"BF","latitude":"11.5","longitude":"-3.51667","country_name":"Burkina Faso"},{"city_name":"Garango","country_code":"BF","latitude":"11.8","longitude":"-0.55056","country_name":"Burkina Faso"},{"city_name":"Fada N'gourma","country_code":"BF","latitude":"12.06157","longitude":"0.35843","country_name":"Burkina Faso"},{"city_name":"Dori","country_code":"BF","latitude":"14.0354","longitude":"-0.0345","country_name":"Burkina Faso"},{"city_name":"Djibo","country_code":"BF","latitude":"14.0994","longitude":"-1.62554","country_name":"Burkina Faso"},{"city_name":"Diapaga","country_code":"BF","latitude":"12.07305","longitude":"1.78838","country_name":"Burkina Faso"},{"city_name":"Dédougou","country_code":"BF","latitude":"12.46338","longitude":"-3.46075","country_name":"Burkina Faso"},{"city_name":"Bobo-Dioulasso","country_code":"BF","latitude":"11.17715","longitude":"-4.2979","country_name":"Burkina Faso"},{"city_name":"Banfora","country_code":"BF","latitude":"10.63333","longitude":"-4.76667","country_name":"Burkina Faso"},{"city_name":"Yambol","country_code":"BG","latitude":"42.48333","longitude":"26.5","country_name":"Bulgaria"},{"city_name":"Vratsa","country_code":"BG","latitude":"43.21","longitude":"23.5625","country_name":"Bulgaria"},{"city_name":"Vidin","country_code":"BG","latitude":"43.99159","longitude":"22.88236","country_name":"Bulgaria"},{"city_name":"Velingrad","country_code":"BG","latitude":"42.02754","longitude":"23.99155","country_name":"Bulgaria"},{"city_name":"Veliko Tŭrnovo","country_code":"BG","latitude":"43.08124","longitude":"25.62904","country_name":"Bulgaria"},{"city_name":"Varna","country_code":"BG","latitude":"43.21667","longitude":"27.91667","country_name":"Bulgaria"},{"city_name":"Targovishte","country_code":"BG","latitude":"43.2512","longitude":"26.57215","country_name":"Bulgaria"},{"city_name":"Troyan","country_code":"BG","latitude":"42.89427","longitude":"24.71589","country_name":"Bulgaria"},{"city_name":"Dobrich","country_code":"BG","latitude":"43.56667","longitude":"27.83333","country_name":"Bulgaria"},{"city_name":"Svishtov","country_code":"BG","latitude":"43.61875","longitude":"25.35033","country_name":"Bulgaria"},{"city_name":"Stara Zagora","country_code":"BG","latitude":"42.43278","longitude":"25.64194","country_name":"Bulgaria"},{"city_name":"Dupnitsa","country_code":"BG","latitude":"42.26667","longitude":"23.11667","country_name":"Bulgaria"},{"city_name":"Sofia","country_code":"BG","latitude":"42.69751","longitude":"23.32415","country_name":"Bulgaria"},{"city_name":"Smolyan","country_code":"BG","latitude":"41.57439","longitude":"24.71204","country_name":"Bulgaria"},{"city_name":"Sliven","country_code":"BG","latitude":"42.68583","longitude":"26.32917","country_name":"Bulgaria"},{"city_name":"Silistra","country_code":"BG","latitude":"44.1171","longitude":"27.26056","country_name":"Bulgaria"},{"city_name":"Shumen","country_code":"BG","latitude":"43.27064","longitude":"26.92286","country_name":"Bulgaria"},{"city_name":"Sevlievo","country_code":"BG","latitude":"43.02583","longitude":"25.11361","country_name":"Bulgaria"},{"city_name":"Sandanski","country_code":"BG","latitude":"41.56667","longitude":"23.28333","country_name":"Bulgaria"},{"city_name":"Samokov","country_code":"BG","latitude":"42.337","longitude":"23.5528","country_name":"Bulgaria"},{"city_name":"Ruse","country_code":"BG","latitude":"43.84872","longitude":"25.9534","country_name":"Bulgaria"},{"city_name":"Razgrad","country_code":"BG","latitude":"43.53333","longitude":"26.51667","country_name":"Bulgaria"},{"city_name":"Plovdiv","country_code":"BG","latitude":"42.15","longitude":"24.75","country_name":"Bulgaria"},{"city_name":"Pleven","country_code":"BG","latitude":"43.41667","longitude":"24.61667","country_name":"Bulgaria"},{"city_name":"Petrich","country_code":"BG","latitude":"41.39846","longitude":"23.20702","country_name":"Bulgaria"},{"city_name":"Pernik","country_code":"BG","latitude":"42.6","longitude":"23.03333","country_name":"Bulgaria"},{"city_name":"Pazardzhik","country_code":"BG","latitude":"42.2","longitude":"24.33333","country_name":"Bulgaria"},{"city_name":"Nova Zagora","country_code":"BG","latitude":"42.48333","longitude":"26.01667","country_name":"Bulgaria"},{"city_name":"Montana","country_code":"BG","latitude":"43.4125","longitude":"23.225","country_name":"Bulgaria"},{"city_name":"Lovech","country_code":"BG","latitude":"43.13333","longitude":"24.71667","country_name":"Bulgaria"},{"city_name":"Lom","country_code":"BG","latitude":"43.82106","longitude":"23.23677","country_name":"Bulgaria"},{"city_name":"Kyustendil","country_code":"BG","latitude":"42.28389","longitude":"22.69111","country_name":"Bulgaria"},{"city_name":"Kardzhali","country_code":"BG","latitude":"41.65","longitude":"25.36667","country_name":"Bulgaria"},{"city_name":"Haskovo","country_code":"BG","latitude":"41.93415","longitude":"25.55557","country_name":"Bulgaria"},{"city_name":"Kazanlak","country_code":"BG","latitude":"42.61667","longitude":"25.4","country_name":"Bulgaria"},{"city_name":"Gotse Delchev","country_code":"BG","latitude":"41.56667","longitude":"23.73333","country_name":"Bulgaria"},{"city_name":"Gorna Oryahovitsa","country_code":"BG","latitude":"43.12778","longitude":"25.70167","country_name":"Bulgaria"},{"city_name":"Gabrovo","country_code":"BG","latitude":"42.87472","longitude":"25.33417","country_name":"Bulgaria"},{"city_name":"Dimitrovgrad","country_code":"BG","latitude":"42.05","longitude":"25.6","country_name":"Bulgaria"},{"city_name":"Burgas","country_code":"BG","latitude":"42.50606","longitude":"27.46781","country_name":"Bulgaria"},{"city_name":"Botevgrad","country_code":"BG","latitude":"42.9","longitude":"23.78333","country_name":"Bulgaria"},{"city_name":"Blagoevgrad","country_code":"BG","latitude":"42.01667","longitude":"23.1","country_name":"Bulgaria"},{"city_name":"Aytos","country_code":"BG","latitude":"42.7","longitude":"27.25","country_name":"Bulgaria"},{"city_name":"Asparuhovo","country_code":"BG","latitude":"43.18067","longitude":"27.88823","country_name":"Bulgaria"},{"city_name":"Asenovgrad","country_code":"BG","latitude":"42.01667","longitude":"24.86667","country_name":"Bulgaria"},{"city_name":"Sitrah","country_code":"BH","latitude":"26.15472","longitude":"50.62056","country_name":"Bahrain"},